{
"type": "FeatureCollection",
"name": "gdf_chargers",
"crs": { "type": "name", "properties": { "name": "urn:ogc:def:crs:OGC:1.3:CRS84" } },
"features": [
{ "type": "Feature", "properties": { "name": "ChargeHub", "address": "65 Eleanor Drive, Lucas, VIC, 3350", "latitude": -37.544906, "longitude": 143.776381, "score": 1.213516593 }, "geometry": { "type": "Point", "coordinates": [ 143.776381, -37.544906 ] } },
{ "type": "Feature", "properties": { "name": "Tesla", "address": "6 Coltman Plaza, Lucas, VIC, 3350", "latitude": -37.542959, "longitude": 143.784769, "score": 1.212915659 }, "geometry": { "type": "Point", "coordinates": [ 143.784769, -37.542959 ] } },
{ "type": "Feature", "properties": { "name": "Exploren", "address": "Gillies St, Ballarat, VIC, 3355", "latitude": -37.539811, "longitude": 143.822108, "score": 1.2082179785 }, "geometry": { "type": "Point", "coordinates": [ 143.822108, -37.539811 ] } },
{ "type": "Feature", "properties": { "name": "Tesla", "address": "333 Gillies Street North, Ballarat, VIC, 3355", "latitude": -37.534594, "longitude": 143.822667, "score": 1.2080379725 }, "geometry": { "type": "Point", "coordinates": [ 143.822667, -37.534594 ] } },
{ "type": "Feature", "properties": { "name": "ChargeFox", "address": "Gillies St N, Ballarat, VIC, 3355", "latitude": -37.535163, "longitude": 143.823717, "score": 1.2078744173 }, "geometry": { "type": "Point", "coordinates": [ 143.823717, -37.535163 ] } },
{ "type": "Feature", "properties": { "name": "ChargeFox", "address": "330 Heinz Lane, Ballarat, VIC, 3350", "latitude": -37.527901, "longitude": 143.857797, "score": 1.2006021738 }, "geometry": { "type": "Point", "coordinates": [ 143.857797, -37.527901 ] } },
{ "type": "Feature", "properties": { "name": "Tesla", "address": "814 Lydiard Street North, Ballarat, VIC, 3350", "latitude": -37.562762, "longitude": 143.857347, "score": 1.2002699375000001 }, "geometry": { "type": "Point", "coordinates": [ 143.857347, -37.562762 ] } },
{ "type": "Feature", "properties": { "name": "ChargeFox", "address": "22 Grant Street, Ballarat, VIC, 3350", "latitude": -37.56709, "longitude": 143.857413, "score": 1.1999028921 }, "geometry": { "type": "Point", "coordinates": [ 143.857413, -37.56709 ] } },
{ "type": "Feature", "properties": { "name": "ChargeFox", "address": "61 Curtis Street, Ballarat, VIC, 3350", "latitude": -37.561314, "longitude": 143.862292, "score": 1.199172616 }, "geometry": { "type": "Point", "coordinates": [ 143.862292, -37.561314 ] } },
{ "type": "Feature", "properties": { "name": "ChargeFox", "address": "Mazumdar Dr, Ballarat, VIC, 3350", "latitude": -37.627852, "longitude": 143.891149, "score": 1.1799362898000001 }, "geometry": { "type": "Point", "coordinates": [ 143.891149, -37.627852 ] } },
{ "type": "Feature", "properties": { "name": "Evie", "address": "9395 Western Highway, Warrenheip, VIC, 3352", "latitude": -37.564495, "longitude": 143.934589, "score": 1.1767866611 }, "geometry": { "type": "Point", "coordinates": [ 143.934589, -37.564495 ] } },
{ "type": "Feature", "properties": { "name": "ChargeFox", "address": "1500 Midland Highway, Creswick, VIC, 3363", "latitude": -37.443855, "longitude": 143.890554, "score": 1.1767495871 }, "geometry": { "type": "Point", "coordinates": [ 143.890554, -37.443855 ] } },
{ "type": "Feature", "properties": { "name": "EVUp", "address": "410 Warrenheip Street, Ballarat, VIC, 3357", "latitude": -37.649185, "longitude": 143.884224, "score": 1.1754277945 }, "geometry": { "type": "Point", "coordinates": [ 143.884224, -37.649185 ] } },
{ "type": "Feature", "properties": { "name": "ChargeFox", "address": "41-43 Albert Street, Creswick, VIC, 3363", "latitude": -37.422472, "longitude": 143.894559, "score": 1.1687277555 }, "geometry": { "type": "Point", "coordinates": [ 143.894559, -37.422472 ] } },
{ "type": "Feature", "properties": { "name": "EVUp", "address": "1A Cameron Street, Clunes, VIC, 3370", "latitude": -37.293051, "longitude": 143.786075, "score": 1.1249446869 }, "geometry": { "type": "Point", "coordinates": [ 143.786075, -37.293051 ] } },
{ "type": "Feature", "properties": { "name": "Evie", "address": "19 Willoby Street, Beaufort, VIC, 3373", "latitude": -37.428843, "longitude": 143.38296, "score": 1.0939763784000001 }, "geometry": { "type": "Point", "coordinates": [ 143.38296, -37.428843 ] } },
{ "type": "Feature", "properties": { "name": "Tesla", "address": "23A King Street, Daylesford, VIC, 3460", "latitude": -37.351031, "longitude": 144.141166, "score": 1.0707720518 }, "geometry": { "type": "Point", "coordinates": [ 144.141166, -37.351031 ] } },
{ "type": "Feature", "properties": { "name": "Tesla", "address": "4 King Street, Daylesford, VIC, 3460", "latitude": -37.349104, "longitude": 144.141044, "score": 1.0704020262 }, "geometry": { "type": "Point", "coordinates": [ 144.141044, -37.349104 ] } },
{ "type": "Feature", "properties": { "name": "ChargeFox", "address": "76 Vincent Street, Daylesford, VIC, 3460", "latitude": -37.342971, "longitude": 144.142172, "score": 1.0688172579 }, "geometry": { "type": "Point", "coordinates": [ 144.142172, -37.342971 ] } },
{ "type": "Feature", "properties": { "name": "ChargeFox", "address": "Mineral Springs Reserve Rd, Hepburn Springs, VIC, 3461", "latitude": -37.309072, "longitude": 144.140369, "score": 1.061999917 }, "geometry": { "type": "Point", "coordinates": [ 144.140369, -37.309072 ] } },
{ "type": "Feature", "properties": { "name": "Tesla", "address": "606 Daylesford Trentham Road, Musk, VIC, 3461", "latitude": -37.374526, "longitude": 144.198017, "score": 1.0600562096 }, "geometry": { "type": "Point", "coordinates": [ 144.198017, -37.374526 ] } },
{ "type": "Feature", "properties": { "name": "Evie", "address": "12 Wallace Street, Meredith, VIC, 3333", "latitude": -37.844323, "longitude": 144.076807, "score": 1.0581064224000001 }, "geometry": { "type": "Point", "coordinates": [ 144.076807, -37.844323 ] } },
{ "type": "Feature", "properties": { "name": "Exploren", "address": "75 Fraser Street, Amphitheatre, VIC, 3468", "latitude": -37.18275, "longitude": 143.399691, "score": 1.0418438911000001 }, "geometry": { "type": "Point", "coordinates": [ 143.399691, -37.18275 ] } },
{ "type": "Feature", "properties": { "name": "ChargeFox", "address": "66 High Street, Trentham, VIC, 3458", "latitude": -37.388595, "longitude": 144.325415, "score": 1.035349369 }, "geometry": { "type": "Point", "coordinates": [ 144.325415, -37.388595 ] } },
{ "type": "Feature", "properties": { "name": "Evie", "address": "Station St, Maryborough, VIC, 3465", "latitude": -37.050907, "longitude": 143.741487, "score": 1.03350389 }, "geometry": { "type": "Point", "coordinates": [ 143.741487, -37.050907 ] } },
{ "type": "Feature", "properties": { "name": "Evie", "address": "101 High Street, Avoca, VIC, 3467", "latitude": -37.089935, "longitude": 143.474508, "score": 1.031473875 }, "geometry": { "type": "Point", "coordinates": [ 143.474508, -37.089935 ] } },
{ "type": "Feature", "properties": { "name": "Exploren", "address": "55 Lyons St, Newstead, VIC, 3462", "latitude": -37.105018, "longitude": 144.065869, "score": 1.0310955048 }, "geometry": { "type": "Point", "coordinates": [ 144.065869, -37.105018 ] } },
{ "type": "Feature", "properties": { "name": "Evie", "address": "33 Forest Street, Castlemaine, VIC, 3450", "latitude": -37.066718, "longitude": 144.217782, "score": 1.0250109434000001 }, "geometry": { "type": "Point", "coordinates": [ 144.217782, -37.066718 ] } },
{ "type": "Feature", "properties": { "name": "Exploren", "address": "98 Forest Street, Castlemaine, VIC, 3450", "latitude": -37.067624, "longitude": 144.222189, "score": 1.0249972343 }, "geometry": { "type": "Point", "coordinates": [ 144.222189, -37.067624 ] } },
{ "type": "Feature", "properties": { "name": "Evie", "address": "29 High Street, Bannockburn, VIC, 3331", "latitude": -38.047336, "longitude": 144.170667, "score": 1.0249823332000001 }, "geometry": { "type": "Point", "coordinates": [ 144.170667, -38.047336 ] } },
{ "type": "Feature", "properties": { "name": "Tesla", "address": "33 Campbell Street, Castlemaine, VIC, 3450", "latitude": -37.06209, "longitude": 144.219713, "score": 1.0249673128000001 }, "geometry": { "type": "Point", "coordinates": [ 144.219713, -37.06209 ] } },
{ "type": "Feature", "properties": { "name": "Evie", "address": "7-15 Baynton Street, Kyneton, VIC, 3444", "latitude": -37.249025, "longitude": 144.452158, "score": 1.0247609615 }, "geometry": { "type": "Point", "coordinates": [ 144.452158, -37.249025 ] } },
{ "type": "Feature", "properties": { "name": "Tesla", "address": "72 Piper Street, Kyneton, VIC, 3444", "latitude": -37.244045, "longitude": 144.44885, "score": 1.0247608423000001 }, "geometry": { "type": "Point", "coordinates": [ 144.44885, -37.244045 ] } },
{ "type": "Feature", "properties": { "name": "Evie", "address": "1 Hutton Street, Kyneton, VIC, 3444", "latitude": -37.247052, "longitude": 144.452539, "score": 1.0247498751 }, "geometry": { "type": "Point", "coordinates": [ 144.452539, -37.247052 ] } },
{ "type": "Feature", "properties": { "name": "Tesla", "address": "1 Bolton Reserve Lane, Kyneton, VIC, 3444", "latitude": -37.249261, "longitude": 144.454986, "score": 1.024743557 }, "geometry": { "type": "Point", "coordinates": [ 144.454986, -37.249261 ] } },
{ "type": "Feature", "properties": { "name": "ChargeFox", "address": "7-25 Caroline Chisholm Drive, Kyneton, VIC, 3444", "latitude": -37.254761, "longitude": 144.47032, "score": 1.0246660709 }, "geometry": { "type": "Point", "coordinates": [ 144.47032, -37.254761 ] } },
{ "type": "Feature", "properties": { "name": "Evie", "address": "124 High Street, Woodend, VIC, 3442", "latitude": -37.356126, "longitude": 144.528313, "score": 1.0246170759 }, "geometry": { "type": "Point", "coordinates": [ 144.528313, -37.356126 ] } },
{ "type": "Feature", "properties": { "name": "Exploren", "address": "426 Black Forest Drive, Macedon, VIC, 3440", "latitude": -37.424244, "longitude": 144.554476, "score": 1.0245785713 }, "geometry": { "type": "Point", "coordinates": [ 144.554476, -37.424244 ] } },
{ "type": "Feature", "properties": { "name": "EVUp", "address": "Degraves Road, Crowlands, VIC, 3377", "latitude": -37.124021, "longitude": 143.120564, "score": 1.0245666504 }, "geometry": { "type": "Point", "coordinates": [ 143.120564, -37.124021 ] } },
{ "type": "Feature", "properties": { "name": "Evie", "address": "30 Smith Street, Macedon, VIC, 3440", "latitude": -37.423816, "longitude": 144.562305, "score": 1.0245217085 }, "geometry": { "type": "Point", "coordinates": [ 144.562305, -37.423816 ] } },
{ "type": "Feature", "properties": { "name": "Saascharge", "address": "40 Robertson Street, Gisborne, VIC, 3437", "latitude": -37.482784, "longitude": 144.585489, "score": 1.0244275331 }, "geometry": { "type": "Point", "coordinates": [ 144.585489, -37.482784 ] } },
{ "type": "Feature", "properties": { "name": "EVERTY", "address": "Prince St, Gisborne, VIC, 3437", "latitude": -37.487131, "longitude": 144.587844, "score": 1.0244139433 }, "geometry": { "type": "Point", "coordinates": [ 144.587844, -37.487131 ] } },
{ "type": "Feature", "properties": { "name": "Evie", "address": "201 Exford Road, Weir Views, VIC, 3338", "latitude": -37.722813, "longitude": 144.572248, "score": 1.0243228674 }, "geometry": { "type": "Point", "coordinates": [ 144.572248, -37.722813 ] } },
{ "type": "Feature", "properties": { "name": "Evie", "address": "7 High Street, Harcourt, VIC, 3453", "latitude": -36.998673, "longitude": 144.26091, "score": 1.0243166685 }, "geometry": { "type": "Point", "coordinates": [ 144.26091, -36.998673 ] } },
{ "type": "Feature", "properties": { "name": "ChargeFox", "address": "Bridge Road, Cobblebank, VIC, 3338", "latitude": -37.715307, "longitude": 144.599737, "score": 1.0241514444 }, "geometry": { "type": "Point", "coordinates": [ 144.599737, -37.715307 ] } },
{ "type": "Feature", "properties": { "name": "Tesla", "address": "Queen St, Ararat, VIC, 3377", "latitude": -37.283396, "longitude": 142.933892, "score": 1.0241514444 }, "geometry": { "type": "Point", "coordinates": [ 142.933892, -37.283396 ] } },
{ "type": "Feature", "properties": { "name": "Evie", "address": "15 Collings St, Ararat, VIC, 3377", "latitude": -37.281976, "longitude": 142.929683, "score": 1.0241191387 }, "geometry": { "type": "Point", "coordinates": [ 142.929683, -37.281976 ] } },
{ "type": "Feature", "properties": { "name": "EVUp", "address": "Cnr High St, Ararat, VIC, 3377", "latitude": -37.282308, "longitude": 142.928119, "score": 1.0241100788 }, "geometry": { "type": "Point", "coordinates": [ 142.928119, -37.282308 ] } },
{ "type": "Feature", "properties": { "name": "NRMA", "address": "Taylor St, Ararat, VIC, 3377", "latitude": -37.285132, "longitude": 142.926456, "score": 1.0241084099 }, "geometry": { "type": "Point", "coordinates": [ 142.926456, -37.285132 ] } },
{ "type": "Feature", "properties": { "name": "Tesla", "address": "6 Acacia Avenue, Ararat, VIC, 3377", "latitude": -37.276701, "longitude": 142.9252, "score": 1.0240725279 }, "geometry": { "type": "Point", "coordinates": [ 142.9252, -37.276701 ] } },
{ "type": "Feature", "properties": { "name": "Delta Electronics", "address": "20 Willis Street, Winchelsea, VIC, 3241", "latitude": -38.239645, "longitude": 143.992976, "score": 1.0239056349 }, "geometry": { "type": "Point", "coordinates": [ 143.992976, -38.239645 ] } },
{ "type": "Feature", "properties": { "name": "Tesla", "address": "470-510 Princes Highway, Geelong, VIC, 3214", "latitude": -38.065192, "longitude": 144.382451, "score": 1.0238958597000001 }, "geometry": { "type": "Point", "coordinates": [ 144.382451, -38.065192 ] } },
{ "type": "Feature", "properties": { "name": "ChargeFox", "address": "1B Willis Street, Winchelsea, VIC, 3241", "latitude": -38.240421, "longitude": 143.991117, "score": 1.0239025354 }, "geometry": { "type": "Point", "coordinates": [ 143.991117, -38.240421 ] } },
{ "type": "Feature", "properties": { "name": "AmpCharge", "address": "2931 Princes Highway, Winchelsea, VIC, 3241", "latitude": -38.245721, "longitude": 143.983611, "score": 1.023871541 }, "geometry": { "type": "Point", "coordinates": [ 143.983611, -38.245721 ] } },
{ "type": "Feature", "properties": { "name": "Tesla", "address": "29 Princes Highway, Geelong, VIC, 3214", "latitude": -38.096811, "longitude": 144.355746, "score": 1.023816824 }, "geometry": { "type": "Point", "coordinates": [ 144.355746, -38.096811 ] } },
{ "type": "Feature", "properties": { "name": "EVUp", "address": "2110 Glenelg Highway, Lake Bolac, VIC, 3351", "latitude": -37.711748, "longitude": 142.840916, "score": 1.0237675905000001 }, "geometry": { "type": "Point", "coordinates": [ 142.840916, -37.711748 ] } },
{ "type": "Feature", "properties": { "name": "ChargeFox", "address": "Weddell Rd, Geelong, VIC, 3215", "latitude": -38.129341, "longitude": 144.345324, "score": 1.023647666 }, "geometry": { "type": "Point", "coordinates": [ 144.345324, -38.129341 ] } },
{ "type": "Feature", "properties": { "name": "Evie", "address": "36-46 Province Boulevard, Geelong, VIC, 3216", "latitude": -38.160661, "longitude": 144.305912, "score": 1.0235956907 }, "geometry": { "type": "Point", "coordinates": [ 144.305912, -38.160661 ] } },
{ "type": "Feature", "properties": { "name": "AmpCharge", "address": "71 Perceval Place, Melbourne, VIC, 3024", "latitude": -37.89597, "longitude": 144.59922, "score": 1.0235857964 }, "geometry": { "type": "Point", "coordinates": [ 144.59922, -37.89597 ] } },
{ "type": "Feature", "properties": { "name": "Evie", "address": "95-103 Pakington Street, Geelong, VIC, 3218", "latitude": -38.136841, "longitude": 144.348358, "score": 1.0235849619 }, "geometry": { "type": "Point", "coordinates": [ 144.348358, -38.136841 ] } },
{ "type": "Feature", "properties": { "name": "Exploren", "address": "1 Tierra Blvd, Melbourne, VIC, 3029", "latitude": -37.849871, "longitude": 144.636904, "score": 1.0235270262 }, "geometry": { "type": "Point", "coordinates": [ 144.636904, -37.849871 ] } },
{ "type": "Feature", "properties": { "name": "ChargeFox", "address": "17 Brougham Street, Geelong, VIC, 3220", "latitude": -38.144026, "longitude": 144.357984, "score": 1.0234973431000001 }, "geometry": { "type": "Point", "coordinates": [ 144.357984, -38.144026 ] } },
{ "type": "Feature", "properties": { "name": "ChargeFox", "address": "21 Cortland Street, Melbourne, VIC, 3024", "latitude": -37.876373, "longitude": 144.627052, "score": 1.0234935284 }, "geometry": { "type": "Point", "coordinates": [ 144.627052, -37.876373 ] } },
{ "type": "Feature", "properties": { "name": "ChargeFox", "address": "10 Western Foreshore Road, Geelong, VIC, 3220", "latitude": -38.143228, "longitude": 144.361128, "score": 1.023489356 }, "geometry": { "type": "Point", "coordinates": [ 144.361128, -38.143228 ] } },
{ "type": "Feature", "properties": { "name": "Tesla", "address": "Myers St & Gheringhap St, Geelong, VIC, 3220", "latitude": -38.151326, "longitude": 144.35656, "score": 1.0234550238 }, "geometry": { "type": "Point", "coordinates": [ 144.35656, -38.151326 ] } },
{ "type": "Feature", "properties": { "name": "ChargeFox", "address": "106-112 Evans Street, Sunbury, VIC, 3429", "latitude": -37.581337, "longitude": 144.726621, "score": 1.023462534 }, "geometry": { "type": "Point", "coordinates": [ 144.726621, -37.581337 ] } },
{ "type": "Feature", "properties": { "name": "ChargeFox", "address": "6 Congo Drive, Melbourne, VIC, 3029", "latitude": -37.853375, "longitude": 144.64729, "score": 1.0234516859 }, "geometry": { "type": "Point", "coordinates": [ 144.64729, -37.853375 ] } },
{ "type": "Feature", "properties": { "name": "Tesla", "address": "6 Bellerine Street, Geelong, VIC, 3220", "latitude": -38.147286, "longitude": 144.366238, "score": 1.0234414339 }, "geometry": { "type": "Point", "coordinates": [ 144.366238, -38.147286 ] } },
{ "type": "Feature", "properties": { "name": "Evie", "address": "98-122 O'Shanassy Street, Sunbury, VIC, 3429", "latitude": -37.581831, "longitude": 144.729187, "score": 1.0234452486000001 }, "geometry": { "type": "Point", "coordinates": [ 144.729187, -37.581831 ] } },
{ "type": "Feature", "properties": { "name": "ChargeFox", "address": "2 Bradfield St, Melbourne, VIC, 3030", "latitude": -37.911206, "longitude": 144.615243, "score": 1.0234309435 }, "geometry": { "type": "Point", "coordinates": [ 144.615243, -37.911206 ] } },
{ "type": "Feature", "properties": { "name": "ChargeFox", "address": "160 Clara Avenue, Melbourne, VIC, 3029", "latitude": -37.765344, "longitude": 144.69096, "score": 1.0234333277000001 }, "geometry": { "type": "Point", "coordinates": [ 144.69096, -37.765344 ] } },
{ "type": "Feature", "properties": { "name": "EVUp", "address": "99 Barrabool Road, Geelong, VIC, 3216", "latitude": -38.167049, "longitude": 144.339013, "score": 1.0234216452 }, "geometry": { "type": "Point", "coordinates": [ 144.339013, -38.167049 ] } },
{ "type": "Feature", "properties": { "name": "ChargeFox", "address": "1 Kings Way, Geelong, VIC, 3216", "latitude": -38.19669, "longitude": 144.299274, "score": 1.0233712196 }, "geometry": { "type": "Point", "coordinates": [ 144.299274, -38.19669 ] } },
{ "type": "Feature", "properties": { "name": "ChargeFox", "address": "61 Polly Parade, Melbourne, VIC, 3029", "latitude": -37.825378, "longitude": 144.683081, "score": 1.0233211517 }, "geometry": { "type": "Point", "coordinates": [ 144.683081, -37.825378 ] } },
{ "type": "Feature", "properties": { "name": "Evie", "address": "179-193 Colac Road, Geelong, VIC, 3216", "latitude": -38.200663, "longitude": 144.312777, "score": 1.0232942104 }, "geometry": { "type": "Point", "coordinates": [ 144.312777, -38.200663 ] } },
{ "type": "Feature", "properties": { "name": "AmpCharge", "address": "173-199 Pioneer Road, Geelong, VIC, 3216", "latitude": -38.199149, "longitude": 144.316878, "score": 1.0232894421000001 }, "geometry": { "type": "Point", "coordinates": [ 144.316878, -38.199149 ] } },
{ "type": "Feature", "properties": { "name": "ChargeFox", "address": "240 Pioneer Road, Geelong, VIC, 3216", "latitude": -38.197658, "longitude": 144.320229, "score": 1.0232871771000001 }, "geometry": { "type": "Point", "coordinates": [ 144.320229, -38.197658 ] } },
{ "type": "Feature", "properties": { "name": "Tesla", "address": "46-48 Murray Street, Colac, VIC, 3250", "latitude": -38.338077, "longitude": 143.597737, "score": 1.0232179165 }, "geometry": { "type": "Point", "coordinates": [ 143.597737, -38.338077 ] } },
{ "type": "Feature", "properties": { "name": "EVUp", "address": "300 Heaths Road, Melbourne, VIC, 3029", "latitude": -37.876496, "longitude": 144.676114, "score": 1.0232001543 }, "geometry": { "type": "Point", "coordinates": [ 144.676114, -37.876496 ] } },
{ "type": "Feature", "properties": { "name": "ChargeFox", "address": "1-15 Banchory Avenue, Melbourne, VIC, 3037", "latitude": -37.691938, "longitude": 144.749907, "score": 1.0232006311 }, "geometry": { "type": "Point", "coordinates": [ 144.749907, -37.691938 ] } },
{ "type": "Feature", "properties": { "name": "Tesla", "address": "4285 Cape Otway Road, Birregurra, VIC, 3242", "latitude": -38.347241, "longitude": 143.806876, "score": 1.0232061148 }, "geometry": { "type": "Point", "coordinates": [ 143.806876, -38.347241 ] } },
{ "type": "Feature", "properties": { "name": "ChargeFox", "address": "22 Synnot Street, Melbourne, VIC, 3030", "latitude": -37.901958, "longitude": 144.662341, "score": 1.0231912136000001 }, "geometry": { "type": "Point", "coordinates": [ 144.662341, -37.901958 ] } },
{ "type": "Feature", "properties": { "name": "AmpCharge", "address": "45 Cherry Street, Melbourne, VIC, 3030", "latitude": -37.899707, "longitude": 144.664971, "score": 1.0231840611 }, "geometry": { "type": "Point", "coordinates": [ 144.664971, -37.899707 ] } },
{ "type": "Feature", "properties": { "name": "Tesla", "address": "Derrimut Rd & Heaths Rd, Melbourne, VIC, 3029", "latitude": -37.875247, "longitude": 144.679639, "score": 1.023183465 }, "geometry": { "type": "Point", "coordinates": [ 144.679639, -37.875247 ] } },
{ "type": "Feature", "properties": { "name": "Tesla", "address": "71 Bellarine Highway, Geelong, VIC, 3219", "latitude": -38.170584, "longitude": 144.392387, "score": 1.0231831074 }, "geometry": { "type": "Point", "coordinates": [ 144.392387, -38.170584 ] } },
{ "type": "Feature", "properties": { "name": "NRMA", "address": "87 Bromfield Street, Colac, VIC, 3250", "latitude": -38.340632, "longitude": 143.58866, "score": 1.0231881142000001 }, "geometry": { "type": "Point", "coordinates": [ 143.58866, -38.340632 ] } },
{ "type": "Feature", "properties": { "name": "Tesla", "address": "158 Bromfield Street, Colac, VIC, 3250", "latitude": -38.341332, "longitude": 143.593052, "score": 1.0231869221000001 }, "geometry": { "type": "Point", "coordinates": [ 143.593052, -38.341332 ] } },
{ "type": "Feature", "properties": { "name": "Evie", "address": "9-29 Bromfield Street, Colac, VIC, 3250", "latitude": -38.340697, "longitude": 143.585454, "score": 1.0231841803 }, "geometry": { "type": "Point", "coordinates": [ 143.585454, -38.340697 ] } },
{ "type": "Feature", "properties": { "name": "Evie", "address": "38 Burke Street, Newbridge, VIC, 3551", "latitude": -36.740509, "longitude": 143.900115, "score": 1.0231790543 }, "geometry": { "type": "Point", "coordinates": [ 143.900115, -36.740509 ] } },
{ "type": "Feature", "properties": { "name": "ChargeFox", "address": "45 Princes Highway, Melbourne, VIC, 3030", "latitude": -37.897095, "longitude": 144.670608, "score": 1.023160696 }, "geometry": { "type": "Point", "coordinates": [ 144.670608, -37.897095 ] } },
{ "type": "Feature", "properties": { "name": "ChargeFox", "address": "51 Melbourne Lancefield Road, Romsey, VIC, 3434", "latitude": -37.353829, "longitude": 144.742925, "score": 1.0231803656 }, "geometry": { "type": "Point", "coordinates": [ 144.742925, -37.353829 ] } },
{ "type": "Feature", "properties": { "name": "AmpCharge", "address": "575 Melton Highway, Melbourne, VIC, 3037", "latitude": -37.694021, "longitude": 144.755443, "score": 1.0231621265 }, "geometry": { "type": "Point", "coordinates": [ 144.755443, -37.694021 ] } },
{ "type": "Feature", "properties": { "name": "ChargeFox", "address": "40 South Rd, Cocoroc, VIC, 3030", "latitude": -37.95365, "longitude": 144.636585, "score": 1.0231370926000001 }, "geometry": { "type": "Point", "coordinates": [ 144.636585, -37.95365 ] } },
{ "type": "Feature", "properties": { "name": "Evie", "address": "140 Main Street, Romsey, VIC, 3434", "latitude": -37.345729, "longitude": 144.743909, "score": 1.0231585503 }, "geometry": { "type": "Point", "coordinates": [ 144.743909, -37.345729 ] } },
{ "type": "Feature", "properties": { "name": "bp pulse", "address": "34 Windsor Gardens, Melbourne, VIC, 3023", "latitude": -37.7555, "longitude": 144.741119, "score": 1.0231394768 }, "geometry": { "type": "Point", "coordinates": [ 144.741119, -37.7555 ] } },
{ "type": "Feature", "properties": { "name": "Exploren", "address": "1145 Western Hwy, Melbourne, VIC, 3023", "latitude": -37.757631, "longitude": 144.741023, "score": 1.0231355429 }, "geometry": { "type": "Point", "coordinates": [ 144.741023, -37.757631 ] } },
{ "type": "Feature", "properties": { "name": "ChargeFox", "address": "4 Everton Road, Melbourne, VIC, 3029", "latitude": -37.819138, "longitude": 144.721469, "score": 1.0231046677 }, "geometry": { "type": "Point", "coordinates": [ 144.721469, -37.819138 ] } },
{ "type": "Feature", "properties": { "name": "ChargeFox", "address": "73 Alcock Road, Melbourne, VIC, 3029", "latitude": -37.828939, "longitude": 144.720734, "score": 1.0230815411 }, "geometry": { "type": "Point", "coordinates": [ 144.720734, -37.828939 ] } },
{ "type": "Feature", "properties": { "name": "ChargeFox", "address": "110-120 Unity Dr, Mount Duneed, VIC, 3217", "latitude": -38.224496, "longitude": 144.32692, "score": 1.0230808258 }, "geometry": { "type": "Point", "coordinates": [ 144.32692, -38.224496 ] } },
{ "type": "Feature", "properties": { "name": "ChargeFox", "address": "117 Alcock Road, Melbourne, VIC, 3029", "latitude": -37.828926, "longitude": 144.724294, "score": 1.0236420631000001 }, "geometry": { "type": "Point", "coordinates": [ 144.724294, -37.828926 ] } },
{ "type": "Feature", "properties": { "name": "Tesla", "address": "399 Melton Highway, Melbourne, VIC, 3038", "latitude": -37.699167, "longitude": 144.776103, "score": 1.0236109495000001 }, "geometry": { "type": "Point", "coordinates": [ 144.776103, -37.699167 ] } },
{ "type": "Feature", "properties": { "name": "JOLT", "address": "431 Kings Road, Melbourne, VIC, 3038", "latitude": -37.699351, "longitude": 144.780302, "score": 1.0235828161 }, "geometry": { "type": "Point", "coordinates": [ 144.780302, -37.699351 ] } },
{ "type": "Feature", "properties": { "name": "Evie", "address": "410 Melton Highway, Melbourne, VIC, 3038", "latitude": -37.696554, "longitude": 144.782132, "score": 1.0235751867 }, "geometry": { "type": "Point", "coordinates": [ 144.782132, -37.696554 ] } },
{ "type": "Feature", "properties": { "name": "Evie", "address": "4 The Crescent, Lancefield, VIC, 3435", "latitude": -37.277541, "longitude": 144.735012, "score": 1.0235569477 }, "geometry": { "type": "Point", "coordinates": [ 144.735012, -37.277541 ] } },
{ "type": "Feature", "properties": { "name": "AmpCharge", "address": "354A Robinsons Road, Melbourne, VIC, 3026", "latitude": -37.805132, "longitude": 144.752026, "score": 1.0235359669 }, "geometry": { "type": "Point", "coordinates": [ 144.752026, -37.805132 ] } },
{ "type": "Feature", "properties": { "name": "EVUp", "address": "28-72 Neale Road, Melbourne, VIC, 3023", "latitude": -37.751271, "longitude": 144.774194, "score": 1.0235255957 }, "geometry": { "type": "Point", "coordinates": [ 144.774194, -37.751271 ] } },
{ "type": "Feature", "properties": { "name": "ChargePoint", "address": "101 Unity Drive, Mount Duneed, VIC, 3217", "latitude": -38.225341, "longitude": 144.328361, "score": 1.0234748125 }, "geometry": { "type": "Point", "coordinates": [ 144.328361, -38.225341 ] } },
{ "type": "Feature", "properties": { "name": "Tesla", "address": "675 Anglesea Road, Freshwater Creek, VIC, 3217", "latitude": -38.259647, "longitude": 144.276227, "score": 1.0242000818000001 }, "geometry": { "type": "Point", "coordinates": [ 144.276227, -38.259647 ] } },
{ "type": "Feature", "properties": { "name": "EVUp", "address": "Blackgate Road, Freshwater Creek, VIC, 3217", "latitude": -38.276781, "longitude": 144.253739, "score": 1.0241322517 }, "geometry": { "type": "Point", "coordinates": [ 144.253739, -38.276781 ] } },
{ "type": "Feature", "properties": { "name": "Tesla", "address": "1280 Blackgate Road, Freshwater Creek, VIC, 3217", "latitude": -38.277701, "longitude": 144.252901, "score": 1.0241272449000001 }, "geometry": { "type": "Point", "coordinates": [ 144.252901, -38.277701 ] } },
{ "type": "Feature", "properties": { "name": "ChargeFox", "address": "46-70 Central Boulevard, Geelong, VIC, 3217", "latitude": -38.231641, "longitude": 144.369055, "score": 1.024086833 }, "geometry": { "type": "Point", "coordinates": [ 144.369055, -38.231641 ] } },
{ "type": "Feature", "properties": { "name": "ChargeFox", "address": "31-39 Kensington Road, Leopold, VIC, 3224", "latitude": -38.18622, "longitude": 144.464413, "score": 1.0240073204 }, "geometry": { "type": "Point", "coordinates": [ 144.464413, -38.18622 ] } },
{ "type": "Feature", "properties": { "name": "Tesla", "address": "Murnong St, Melbourne, VIC, 3030", "latitude": -37.883863, "longitude": 144.735884, "score": 1.0239561796000001 }, "geometry": { "type": "Point", "coordinates": [ 144.735884, -37.883863 ] } },
{ "type": "Feature", "properties": { "name": "Evie", "address": "20 Mount Derrimut Road, Melbourne, VIC, 3026", "latitude": -37.784565, "longitude": 144.772413, "score": 1.0239428282 }, "geometry": { "type": "Point", "coordinates": [ 144.772413, -37.784565 ] } },
{ "type": "Feature", "properties": { "name": "Evie", "address": "2 Bath Street, Camperdown, VIC, 3260", "latitude": -38.230375, "longitude": 143.145888, "score": 1.0234824419 }, "geometry": { "type": "Point", "coordinates": [ 143.145888, -38.230375 ] } },
{ "type": "Feature", "properties": { "name": "EVUp", "address": "445 Gum Flats Road, Wensleydale, VIC, 3241", "latitude": -38.35946, "longitude": 144.089794, "score": 1.0233639479000001 }, "geometry": { "type": "Point", "coordinates": [ 144.089794, -38.35946 ] } },
{ "type": "Feature", "properties": { "name": "NRMA", "address": "26 High Street, Marong, VIC, 3515", "latitude": -36.734622, "longitude": 144.133543, "score": 1.0232056379000001 }, "geometry": { "type": "Point", "coordinates": [ 144.133543, -36.734622 ] } },
{ "type": "Feature", "properties": { "name": "Tesla", "address": "369-371 High Street, Bendigo, VIC, 3555", "latitude": -36.77435, "longitude": 144.25694, "score": 1.0231956244 }, "geometry": { "type": "Point", "coordinates": [ 144.25694, -36.77435 ] } },
{ "type": "Feature", "properties": { "name": "EVUp", "address": "392 Boundary Road, Melbourne, VIC, 3026", "latitude": -37.811446, "longitude": 144.767015, "score": 1.0239186287 }, "geometry": { "type": "Point", "coordinates": [ 144.767015, -37.811446 ] } },
{ "type": "Feature", "properties": { "name": "Evie", "address": "80 Taylors Road, Melbourne, VIC, 3038", "latitude": -37.726422, "longitude": 144.808207, "score": 1.0238484144 }, "geometry": { "type": "Point", "coordinates": [ 144.808207, -37.726422 ] } },
{ "type": "Feature", "properties": { "name": "Tesla", "address": "60 Fulton Drive, Melbourne, VIC, 3026", "latitude": -37.809294, "longitude": 144.781323, "score": 1.0238317251 }, "geometry": { "type": "Point", "coordinates": [ 144.781323, -37.809294 ] } },
{ "type": "Feature", "properties": { "name": "Evie", "address": "475 Fitzgerald Road, Melbourne, VIC, 3020", "latitude": -37.792922, "longitude": 144.789634, "score": 1.0238221884000001 }, "geometry": { "type": "Point", "coordinates": [ 144.789634, -37.792922 ] } },
{ "type": "Feature", "properties": { "name": "ChargeFox", "address": "145 Furlong Road, Melbourne, VIC, 3021", "latitude": -37.761797, "longitude": 144.815583, "score": 1.0507005453 }, "geometry": { "type": "Point", "coordinates": [ 144.815583, -37.761797 ] } },
{ "type": "Feature", "properties": { "name": "Evie", "address": "53 Sunshine Avenue, Melbourne, VIC, 3021", "latitude": -37.74916, "longitude": 144.830252, "score": 1.0485036373000001 }, "geometry": { "type": "Point", "coordinates": [ 144.830252, -37.74916 ] } },
{ "type": "Feature", "properties": { "name": "Exploren", "address": "46 Fitzgerald Road, Melbourne, VIC, 3026", "latitude": -37.843402, "longitude": 144.782836, "score": 1.0479199886 }, "geometry": { "type": "Point", "coordinates": [ 144.782836, -37.843402 ] } },
{ "type": "Feature", "properties": { "name": "ChargeFox", "address": "59 Jamieson Way, Melbourne, VIC, 3030", "latitude": -37.896352, "longitude": 144.747798, "score": 1.0461770296 }, "geometry": { "type": "Point", "coordinates": [ 144.747798, -37.896352 ] } },
{ "type": "Feature", "properties": { "name": "Tesla", "address": "123 Central Avenue, Melbourne, VIC, 3028", "latitude": -37.871721, "longitude": 144.774901, "score": 1.0452808142000001 }, "geometry": { "type": "Point", "coordinates": [ 144.774901, -37.871721 ] } },
{ "type": "Feature", "properties": { "name": "ChargeFox", "address": "189B South Centre Road, Melbourne, VIC, 3043", "latitude": -37.704905, "longitude": 144.858019, "score": 1.0452438593 }, "geometry": { "type": "Point", "coordinates": [ 144.858019, -37.704905 ] } },
{ "type": "Feature", "properties": { "name": "ChargeFox", "address": "309 Melrose Drive, Melbourne, VIC, 3045", "latitude": -37.686587, "longitude": 144.866852, "score": 1.044110775 }, "geometry": { "type": "Point", "coordinates": [ 144.866852, -37.686587 ] } },
{ "type": "Feature", "properties": { "name": "AmpCharge", "address": "1 Horsburgh Drive, Melbourne, VIC, 3025", "latitude": -37.846758, "longitude": 144.809225, "score": 1.0425108671000001 }, "geometry": { "type": "Point", "coordinates": [ 144.809225, -37.846758 ] } },
{ "type": "Feature", "properties": { "name": "Tesla", "address": "4-8 Sabre Court, Melbourne, VIC, 3043", "latitude": -37.691204, "longitude": 144.8775, "score": 1.0417921543 }, "geometry": { "type": "Point", "coordinates": [ 144.8775, -37.691204 ] } },
{ "type": "Feature", "properties": { "name": "Evie", "address": "239-241 Mickleham Road, Melbourne, VIC, 3049", "latitude": -37.684083, "longitude": 144.88185, "score": 1.0411633253000001 }, "geometry": { "type": "Point", "coordinates": [ 144.88185, -37.684083 ] } },
{ "type": "Feature", "properties": { "name": "ChargeFox", "address": "494 Grieve Parade, Melbourne, VIC, 3025", "latitude": -37.832636, "longitude": 144.827123, "score": 1.0409882069 }, "geometry": { "type": "Point", "coordinates": [ 144.827123, -37.832636 ] } },
{ "type": "Feature", "properties": { "name": "EVUp", "address": "90 Cranwell Street, Melbourne, VIC, 3019", "latitude": -37.777846, "longitude": 144.856653, "score": 1.0408420563 }, "geometry": { "type": "Point", "coordinates": [ 144.856653, -37.777846 ] } },
{ "type": "Feature", "properties": { "name": "ChargeFox", "address": "29-35 Louis Street, Melbourne, VIC, 3042", "latitude": -37.713652, "longitude": 144.885528, "score": 1.0393999815 }, "geometry": { "type": "Point", "coordinates": [ 144.885528, -37.713652 ] } },
{ "type": "Feature", "properties": { "name": "ChargeFox", "address": "2335 Mickleham Road, Melbourne, VIC, 3064", "latitude": -37.530254, "longitude": 144.880563, "score": 1.0395298004 }, "geometry": { "type": "Point", "coordinates": [ 144.880563, -37.530254 ] } },
{ "type": "Feature", "properties": { "name": "ChargeHub", "address": "30 Industry Park Drive, Melbourne, VIC, 3012", "latitude": -37.81405, "longitude": 144.852591, "score": 1.0384714603 }, "geometry": { "type": "Point", "coordinates": [ 144.852591, -37.81405 ] } },
{ "type": "Feature", "properties": { "name": "ChargePoint", "address": "Melody Way, Melbourne, VIC, 3064", "latitude": -37.565104, "longitude": 144.893854, "score": 1.0385562181000001 }, "geometry": { "type": "Point", "coordinates": [ 144.893854, -37.565104 ] } },
{ "type": "Feature", "properties": { "name": "Exploren", "address": "124-134 Millers Road, Melbourne, VIC, 3025", "latitude": -37.828003, "longitude": 144.847255, "score": 1.0380544662 }, "geometry": { "type": "Point", "coordinates": [ 144.847255, -37.828003 ] } },
{ "type": "Feature", "properties": { "name": "ChargeFox", "address": "134 Millers Road, Melbourne, VIC, 3025", "latitude": -37.827293, "longitude": 144.847828, "score": 1.0380285978 }, "geometry": { "type": "Point", "coordinates": [ 144.847828, -37.827293 ] } },
{ "type": "Feature", "properties": { "name": "Tesla", "address": "131 Lionel St, Melbourne, VIC, 3041", "latitude": -37.719979, "longitude": 144.892936, "score": 1.0377966166000001 }, "geometry": { "type": "Point", "coordinates": [ 144.892936, -37.719979 ] } },
{ "type": "Feature", "properties": { "name": "ChargePoint", "address": "288 Wirraway Road, Melbourne, VIC, 3041", "latitude": -37.720262, "longitude": 144.89585, "score": 1.0372766256 }, "geometry": { "type": "Point", "coordinates": [ 144.89585, -37.720262 ] } },
{ "type": "Feature", "properties": { "name": "Evie", "address": "31 Dudley Street, Melbourne, VIC, 3041", "latitude": -37.736701, "longitude": 144.892806, "score": 1.0370436907 }, "geometry": { "type": "Point", "coordinates": [ 144.892806, -37.736701 ] } },
{ "type": "Feature", "properties": { "name": "ChargeFox", "address": "115 Civic Parade, Melbourne, VIC, 3018", "latitude": -37.86367, "longitude": 144.831039, "score": 1.0369615555 }, "geometry": { "type": "Point", "coordinates": [ 144.831039, -37.86367 ] } },
{ "type": "Feature", "properties": { "name": "bp pulse", "address": "470 Donnybrook Road, Melbourne, VIC, 3064", "latitude": -37.534483, "longitude": 144.898278, "score": 1.0366088152 }, "geometry": { "type": "Point", "coordinates": [ 144.898278, -37.534483 ] } },
{ "type": "Feature", "properties": { "name": "ChargeFox", "address": "200 James Mirams Drive, Melbourne, VIC, 3064", "latitude": -37.616314, "longitude": 144.914774, "score": 1.0358504057 }, "geometry": { "type": "Point", "coordinates": [ 144.914774, -37.616314 ] } },
{ "type": "Feature", "properties": { "name": "Exploren", "address": "1169 Pascoe Vale Road, Melbourne, VIC, 3047", "latitude": -37.679183, "longitude": 144.920912, "score": 1.0343722105 }, "geometry": { "type": "Point", "coordinates": [ 144.920912, -37.679183 ] } },
{ "type": "Feature", "properties": { "name": "Evie", "address": "1177-1183 Pascoe Vale Road, Melbourne, VIC, 3047", "latitude": -37.676814, "longitude": 144.922268, "score": 1.0342032909000001 }, "geometry": { "type": "Point", "coordinates": [ 144.922268, -37.676814 ] } },
{ "type": "Feature", "properties": { "name": "ChargeFox", "address": "250 Bridgewater Rd, Melbourne, VIC, 3064", "latitude": -37.619549, "longitude": 144.927975, "score": 1.033721447 }, "geometry": { "type": "Point", "coordinates": [ 144.927975, -37.619549 ] } },
{ "type": "Feature", "properties": { "name": "ChargeFox", "address": "50 Wheatsheaf Road, Melbourne, VIC, 3046", "latitude": -37.708486, "longitude": 144.924066, "score": 1.0331285 }, "geometry": { "type": "Point", "coordinates": [ 144.924066, -37.708486 ] } },
{ "type": "Feature", "properties": { "name": "ChargeFox", "address": "HA2 Hillside Drive, Bendigo, VIC, 3550", "latitude": -36.781401, "longitude": 144.299731, "score": 1.0242848396 }, "geometry": { "type": "Point", "coordinates": [ 144.299731, -36.781401 ] } },
{ "type": "Feature", "properties": { "name": "Tesla", "address": "177-183 Calder Highway, Bendigo, VIC, 3550", "latitude": -36.76459, "longitude": 144.26992, "score": 1.0242676735 }, "geometry": { "type": "Point", "coordinates": [ 144.26992, -36.76459 ] } },
{ "type": "Feature", "properties": { "name": "Evie", "address": "29 Edward Street, Bendigo, VIC, 3550", "latitude": -36.763561, "longitude": 144.279622, "score": 1.0242245197 }, "geometry": { "type": "Point", "coordinates": [ 144.279622, -36.763561 ] } },
{ "type": "Feature", "properties": { "name": "Tesla", "address": "404 Hargreaves Street, Bendigo, VIC, 3550", "latitude": -36.761875, "longitude": 144.27746, "score": 1.0242192745000001 }, "geometry": { "type": "Point", "coordinates": [ 144.27746, -36.761875 ] } },
{ "type": "Feature", "properties": { "name": "Tesla", "address": "150 Condon Street, Bendigo, VIC, 3550", "latitude": -36.774953, "longitude": 144.306043, "score": 1.0242118835 }, "geometry": { "type": "Point", "coordinates": [ 144.306043, -36.774953 ] } },
{ "type": "Feature", "properties": { "name": "Tesla", "address": "158 Condon Street, Bendigo, VIC, 3550", "latitude": -36.77454, "longitude": 144.306478, "score": 1.024206996 }, "geometry": { "type": "Point", "coordinates": [ 144.306478, -36.77454 ] } },
{ "type": "Feature", "properties": { "name": "Tesla", "address": "26 Forest Street, Bendigo, VIC, 3550", "latitude": -36.759099, "longitude": 144.27639, "score": 1.02420187 }, "geometry": { "type": "Point", "coordinates": [ 144.27639, -36.759099 ] } },
{ "type": "Feature", "properties": { "name": "Evie", "address": "30 Gaol Road, Bendigo, VIC, 3550", "latitude": -36.757022, "longitude": 144.276628, "score": 1.0241850615000001 }, "geometry": { "type": "Point", "coordinates": [ 144.276628, -36.757022 ] } },
{ "type": "Feature", "properties": { "name": "ChargeFox", "address": "11 Saint Andrew's Avenue, Bendigo, VIC, 3550", "latitude": -36.759747, "longitude": 144.283566, "score": 1.0241808891 }, "geometry": { "type": "Point", "coordinates": [ 144.283566, -36.759747 ] } },
{ "type": "Feature", "properties": { "name": "Tesla", "address": "200 McCrae Street, Bendigo, VIC, 3550", "latitude": -36.75388, "longitude": 144.28681, "score": 1.0241241455000001 }, "geometry": { "type": "Point", "coordinates": [ 144.28681, -36.75388 ] } },
{ "type": "Feature", "properties": { "name": "Tesla", "address": "60 Lucan Street, Bendigo, VIC, 3550", "latitude": -36.748626, "longitude": 144.28432, "score": 1.0240930319 }, "geometry": { "type": "Point", "coordinates": [ 144.28432, -36.748626 ] } },
{ "type": "Feature", "properties": { "name": "ChargeFox", "address": "62-104 Charleston Road, Bendigo, VIC, 3550", "latitude": -36.753211, "longitude": 144.294397, "score": 1.0240914822 }, "geometry": { "type": "Point", "coordinates": [ 144.294397, -36.753211 ] } },
{ "type": "Feature", "properties": { "name": "Tesla", "address": "761 McIvor Highway, Bendigo, VIC, 3551", "latitude": -36.769321, "longitude": 144.347151, "score": 1.0240088701000001 }, "geometry": { "type": "Point", "coordinates": [ 144.347151, -36.769321 ] } },
{ "type": "Feature", "properties": { "name": "ChargeFox", "address": "156-158 Strickland Road, Bendigo, VIC, 3550", "latitude": -36.750991, "longitude": 144.317948, "score": 1.0239876509000001 }, "geometry": { "type": "Point", "coordinates": [ 144.317948, -36.750991 ] } },
{ "type": "Feature", "properties": { "name": "Tesla", "address": "Cnr Calder Highway and Arnold Road, Bridgewater on Loddon, VIC, 3516", "latitude": -36.599768, "longitude": 143.937521, "score": 1.0236077309 }, "geometry": { "type": "Point", "coordinates": [ 143.937521, -36.599768 ] } },
{ "type": "Feature", "properties": { "name": "Evie", "address": "Storm Ln, Inglewood, VIC, 3517", "latitude": -36.575822, "longitude": 143.867654, "score": 1.0234386921 }, "geometry": { "type": "Point", "coordinates": [ 143.867654, -36.575822 ] } },
{ "type": "Feature", "properties": { "name": "Evie", "address": "126 High Street, Heathcote, VIC, 3523", "latitude": -36.923458, "longitude": 144.709967, "score": 1.0231163502 }, "geometry": { "type": "Point", "coordinates": [ 144.709967, -36.923458 ] } },
{ "type": "Feature", "properties": { "name": "Tesla", "address": "80 Clarke Street, Kilmore, VIC, 3764", "latitude": -37.286293, "longitude": 144.947443, "score": 1.0249774456 }, "geometry": { "type": "Point", "coordinates": [ 144.947443, -37.286293 ] } },
{ "type": "Feature", "properties": { "name": "ChargeFox", "address": "12 Sydney Street, Kilmore, VIC, 3764", "latitude": -37.294263, "longitude": 144.952558, "score": 1.0249421597 }, "geometry": { "type": "Point", "coordinates": [ 144.952558, -37.294263 ] } },
{ "type": "Feature", "properties": { "name": "Evie", "address": "65 High Street, Wallan, VIC, 3756", "latitude": -37.41385, "longitude": 144.979186, "score": 1.0246794224 }, "geometry": { "type": "Point", "coordinates": [ 144.979186, -37.41385 ] } },
{ "type": "Feature", "properties": { "name": "Tesla", "address": "38 Church Street, Stawell, VIC, 3380", "latitude": -37.054373, "longitude": 142.781397, "score": 1.0366295576 }, "geometry": { "type": "Point", "coordinates": [ 142.781397, -37.054373 ] } },
{ "type": "Feature", "properties": { "name": "Evie", "address": "24 Sloane Street, Stawell, VIC, 3380", "latitude": -37.056815, "longitude": 142.78103, "score": 1.0366257429000001 }, "geometry": { "type": "Point", "coordinates": [ 142.78103, -37.056815 ] } },
{ "type": "Feature", "properties": { "name": "Evie", "address": "9 Walker Street, St Arnaud, VIC, 3478", "latitude": -36.615251, "longitude": 143.258458, "score": 1.0313637257 }, "geometry": { "type": "Point", "coordinates": [ 143.258458, -36.615251 ] } },
{ "type": "Feature", "properties": { "name": "EVUp", "address": "3360 Ararat Halls Gap Road, Pomonal, VIC, 3381", "latitude": -37.195489, "longitude": 142.609366, "score": 1.0248881578 }, "geometry": { "type": "Point", "coordinates": [ 142.609366, -37.195489 ] } },
{ "type": "Feature", "properties": { "name": "Tesla", "address": "3594 Ararat Halls Gap Road, Pomonal, VIC, 3381", "latitude": -37.176875, "longitude": 142.599545, "score": 1.0248367786000001 }, "geometry": { "type": "Point", "coordinates": [ 142.599545, -37.176875 ] } },
{ "type": "Feature", "properties": { "name": "NRMA", "address": "2372 Grampians Road, Halls Gap, VIC, 3381", "latitude": -37.12948, "longitude": 142.523856, "score": 1.0243121386 }, "geometry": { "type": "Point", "coordinates": [ 142.523856, -37.12948 ] } },
{ "type": "Feature", "properties": { "name": "Evie", "address": "67 High St, Wedderburn, VIC, 3518", "latitude": -36.417928, "longitude": 143.613877, "score": 1.023968339 }, "geometry": { "type": "Point", "coordinates": [ 143.613877, -36.417928 ] } },
{ "type": "Feature", "properties": { "name": "Evie", "address": "68 Woods Street, Donald, VIC, 3480", "latitude": -36.371019, "longitude": 142.982008, "score": 1.0232503414 }, "geometry": { "type": "Point", "coordinates": [ 142.982008, -36.371019 ] } },
{ "type": "Feature", "properties": { "name": "Evie", "address": "83 Wills Street, Dunkeld, VIC, 3294", "latitude": -37.650716, "longitude": 142.342256, "score": 1.0218328238000001 }, "geometry": { "type": "Point", "coordinates": [ 142.342256, -37.650716 ] } },
{ "type": "Feature", "properties": { "name": "Porsche Smart Mobility", "address": "98 Parker Street, Dunkeld, VIC, 3294", "latitude": -37.648942, "longitude": 142.340028, "score": 1.0218292475 }, "geometry": { "type": "Point", "coordinates": [ 142.340028, -37.648942 ] } },
{ "type": "Feature", "properties": { "name": "EVERTY", "address": "33A Hamilton Street, Horsham, VIC, 3400", "latitude": -36.718024, "longitude": 142.204545, "score": 1.0216467381000001 }, "geometry": { "type": "Point", "coordinates": [ 142.204545, -36.718024 ] } },
{ "type": "Feature", "properties": { "name": "Tesla", "address": "118 Baillie Street, Horsham, VIC, 3400", "latitude": -36.711207, "longitude": 142.203015, "score": 1.0216200352 }, "geometry": { "type": "Point", "coordinates": [ 142.203015, -36.711207 ] } },
{ "type": "Feature", "properties": { "name": "ChargeFox", "address": "126 Baillie Street, Horsham, VIC, 3400", "latitude": -36.711136, "longitude": 142.201995, "score": 1.0216145515 }, "geometry": { "type": "Point", "coordinates": [ 142.201995, -36.711136 ] } },
{ "type": "Feature", "properties": { "name": "Tesla", "address": "36 Darlot Street, Horsham, VIC, 3400", "latitude": -36.715835, "longitude": 142.196473, "score": 1.0215989351000001 }, "geometry": { "type": "Point", "coordinates": [ 142.196473, -36.715835 ] } },
{ "type": "Feature", "properties": { "name": "Evie", "address": "Fairview Street, Wycheproof, VIC, 3527", "latitude": -36.078896, "longitude": 143.226469, "score": 1.021468401 }, "geometry": { "type": "Point", "coordinates": [ 143.226469, -36.078896 ] } },
{ "type": "Feature", "properties": { "name": "NRMA", "address": "Broadway, Wycheproof, VIC, 3527", "latitude": -36.075454, "longitude": 143.225128, "score": 1.0214438438 }, "geometry": { "type": "Point", "coordinates": [ 143.225128, -36.075454 ] } },
{ "type": "Feature", "properties": { "name": "Evie", "address": "18 Woolcock Street, Warracknabeal, VIC, 3393", "latitude": -36.250723, "longitude": 142.39411, "score": 1.0206460953000001 }, "geometry": { "type": "Point", "coordinates": [ 142.39411, -36.250723 ] } },
{ "type": "Feature", "properties": { "name": "ChargeFox", "address": "1 Merrijig Drive, Torquay, VIC, 3228", "latitude": -38.307031, "longitude": 144.321656, "score": 1.0235599279000001 }, "geometry": { "type": "Point", "coordinates": [ 144.321656, -38.307031 ] } },
{ "type": "Feature", "properties": { "name": "ChargeFox", "address": "1 McMillan Street, Anglesea, VIC, 3230", "latitude": -38.409798, "longitude": 144.184705, "score": 1.0234909058 }, "geometry": { "type": "Point", "coordinates": [ 144.184705, -38.409798 ] } },
{ "type": "Feature", "properties": { "name": "EVERTY", "address": "18 Great Ocean Road, Aireys Inlet, VIC, 3231", "latitude": -38.457611, "longitude": 144.10689, "score": 1.0234235525 }, "geometry": { "type": "Point", "coordinates": [ 144.10689, -38.457611 ] } },
{ "type": "Feature", "properties": { "name": "Tesla", "address": "1 Great Ocean Rd, Torquay, VIC, 3228", "latitude": -38.339646, "longitude": 144.311534, "score": 1.0234129429000001 }, "geometry": { "type": "Point", "coordinates": [ 144.311534, -38.339646 ] } },
{ "type": "Feature", "properties": { "name": "Evie", "address": "2 Walker Street, Torquay, VIC, 3228", "latitude": -38.331237, "longitude": 144.324983, "score": 1.0234011412 }, "geometry": { "type": "Point", "coordinates": [ 144.324983, -38.331237 ] } },
{ "type": "Feature", "properties": { "name": "ChargeFox", "address": "15 Mountjoy Parade, Lorne, VIC, 3232", "latitude": -38.536433, "longitude": 143.974842, "score": 1.0231872797 }, "geometry": { "type": "Point", "coordinates": [ 143.974842, -38.536433 ] } },
{ "type": "Feature", "properties": { "name": "ChargeFox", "address": "Peninsula Dr, Drysdale, VIC, 3222", "latitude": -38.189215, "longitude": 144.554658, "score": 1.0229195356 }, "geometry": { "type": "Point", "coordinates": [ 144.554658, -38.189215 ] } },
{ "type": "Feature", "properties": { "name": "ChargeFox", "address": "113 High Street, Broadford, VIC, 3658", "latitude": -37.202522, "longitude": 145.048751, "score": 1.0213576555 }, "geometry": { "type": "Point", "coordinates": [ 145.048751, -37.202522 ] } },
{ "type": "Feature", "properties": { "name": "Tesla", "address": "470 Mitchellstown Road, Mitchellstown, VIC, 3608", "latitude": -36.849452, "longitude": 145.088741, "score": 1.0209634304 }, "geometry": { "type": "Point", "coordinates": [ 145.088741, -36.849452 ] } },
{ "type": "Feature", "properties": { "name": "Porsche Smart Mobility", "address": "Mitchellstown Road, Mitchellstown, VIC, 3608", "latitude": -36.849369, "longitude": 145.089281, "score": 1.0209604502 }, "geometry": { "type": "Point", "coordinates": [ 145.089281, -36.849369 ] } },
{ "type": "Feature", "properties": { "name": "ChargeFox", "address": "142 Mulberry Drive, Nagambie, VIC, 3608", "latitude": -36.827053, "longitude": 145.086675, "score": 1.020955205 }, "geometry": { "type": "Point", "coordinates": [ 145.086675, -36.827053 ] } },
{ "type": "Feature", "properties": { "name": "Exploren", "address": "11 Winter Road, Girgarre, VIC, 3624", "latitude": -36.399745, "longitude": 144.979276, "score": 1.0244190693 }, "geometry": { "type": "Point", "coordinates": [ 144.979276, -36.399745 ] } },
{ "type": "Feature", "properties": { "name": "Evie", "address": "328-334 High Street, Nagambie, VIC, 3608", "latitude": -36.783982, "longitude": 145.154381, "score": 1.0240356922 }, "geometry": { "type": "Point", "coordinates": [ 145.154381, -36.783982 ] } },
{ "type": "Feature", "properties": { "name": "bp pulse", "address": "73-85 Murray Valley Highway, Echuca, VIC, 3564", "latitude": -36.132888, "longitude": 144.727269, "score": 1.0239757299000001 }, "geometry": { "type": "Point", "coordinates": [ 144.727269, -36.132888 ] } },
{ "type": "Feature", "properties": { "name": "Tesla", "address": "365 High Street, Echuca, VIC, 3564", "latitude": -36.133209, "longitude": 144.749089, "score": 1.0238987207000001 }, "geometry": { "type": "Point", "coordinates": [ 144.749089, -36.133209 ] } },
{ "type": "Feature", "properties": { "name": "Evie", "address": "438-454 High Street, Echuca, VIC, 3564", "latitude": -36.12731, "longitude": 144.74814, "score": 1.0238585472 }, "geometry": { "type": "Point", "coordinates": [ 144.74814, -36.12731 ] } },
{ "type": "Feature", "properties": { "name": "Saascharge", "address": "Corner Cobb Hwy & Shaw St, Moama, NSW, 2731", "latitude": -36.117789, "longitude": 144.755768, "score": 1.0237605572 }, "geometry": { "type": "Point", "coordinates": [ 144.755768, -36.117789 ] } },
{ "type": "Feature", "properties": { "name": "Exploren", "address": "56 Merool Rd, Moama, NSW, 2731", "latitude": -36.103586, "longitude": 144.732217, "score": 1.0237386227 }, "geometry": { "type": "Point", "coordinates": [ 144.732217, -36.103586 ] } },
{ "type": "Feature", "properties": { "name": "Tesla", "address": "54 Meninya Street, Moama, NSW, 2731", "latitude": -36.111537, "longitude": 144.753642, "score": 1.0237224102 }, "geometry": { "type": "Point", "coordinates": [ 144.753642, -36.111537 ] } },
{ "type": "Feature", "properties": { "name": "ChargeFox", "address": "69 Anzac Avenue, Seymour, VIC, 3660", "latitude": -37.027959, "longitude": 145.142948, "score": 1.023655653 }, "geometry": { "type": "Point", "coordinates": [ 145.142948, -37.027959 ] } },
{ "type": "Feature", "properties": { "name": "ChargeHub", "address": "Parslow Pl, Moama, NSW, 2731", "latitude": -36.07285, "longitude": 144.732871, "score": 1.0235081911 }, "geometry": { "type": "Point", "coordinates": [ 144.732871, -36.07285 ] } },
{ "type": "Feature", "properties": { "name": "Tesla", "address": "1 Bank Street, Avenel, VIC, 3664", "latitude": -36.892313, "longitude": 145.229838, "score": 1.0234094858 }, "geometry": { "type": "Point", "coordinates": [ 145.229838, -36.892313 ] } },
{ "type": "Feature", "properties": { "name": "Evie", "address": "54 Jones Street, Avenel, VIC, 3664", "latitude": -36.907422, "longitude": 145.239881, "score": 1.0233194828000001 }, "geometry": { "type": "Point", "coordinates": [ 145.239881, -36.907422 ] } },
{ "type": "Feature", "properties": { "name": "ChargeFox", "address": "104 Hogan Street, Tatura, VIC, 3616", "latitude": -36.44028, "longitude": 145.226056, "score": 1.0230537653 }, "geometry": { "type": "Point", "coordinates": [ 145.226056, -36.44028 ] } },
{ "type": "Feature", "properties": { "name": "Evie", "address": "King George St, Cohuna, VIC, 3568", "latitude": -35.80792, "longitude": 144.220855, "score": 1.022154808 }, "geometry": { "type": "Point", "coordinates": [ 144.220855, -35.80792 ] } },
{ "type": "Feature", "properties": { "name": "Evie", "address": "9-30 Young Street, Mooroopna, VIC, 3629", "latitude": -36.394599, "longitude": 145.359871, "score": 1.022149086 }, "geometry": { "type": "Point", "coordinates": [ 145.359871, -36.394599 ] } },
{ "type": "Feature", "properties": { "name": "Saascharge", "address": "481 Wyndham Street, Shepparton, VIC, 3630", "latitude": -36.386572, "longitude": 145.398877, "score": 1.0219138861 }, "geometry": { "type": "Point", "coordinates": [ 145.398877, -36.386572 ] } },
{ "type": "Feature", "properties": { "name": "Tesla", "address": "7 Ashenden Street, Shepparton, VIC, 3630", "latitude": -36.384303, "longitude": 145.401039, "score": 1.0218960047000001 }, "geometry": { "type": "Point", "coordinates": [ 145.401039, -36.384303 ] } },
{ "type": "Feature", "properties": { "name": "Evie", "address": "8 Fraser Street, Shepparton, VIC, 3630", "latitude": -36.380241, "longitude": 145.400257, "score": 1.0218892097000001 }, "geometry": { "type": "Point", "coordinates": [ 145.400257, -36.380241 ] } },
{ "type": "Feature", "properties": { "name": "NRMA", "address": "115-121 Maude Street, Shepparton, VIC, 3630", "latitude": -36.377368, "longitude": 145.401935, "score": 1.0218724012 }, "geometry": { "type": "Point", "coordinates": [ 145.401935, -36.377368 ] } },
{ "type": "Feature", "properties": { "name": "ChargeFox", "address": "210 Fryers Street, Shepparton, VIC, 3630", "latitude": -36.380713, "longitude": 145.406779, "score": 1.0218554735000001 }, "geometry": { "type": "Point", "coordinates": [ 145.406779, -36.380713 ] } },
{ "type": "Feature", "properties": { "name": "ChargeFox", "address": "51 Mitchell Street, Shepparton, VIC, 3630", "latitude": -36.382083, "longitude": 145.420348, "score": 1.0217864513 }, "geometry": { "type": "Point", "coordinates": [ 145.420348, -36.382083 ] } },
{ "type": "Feature", "properties": { "name": "Exploren", "address": "19-35 New Dookie Rd, Shepparton, VIC, 3630", "latitude": -36.366857, "longitude": 145.419672, "score": 1.0217491388 }, "geometry": { "type": "Point", "coordinates": [ 145.419672, -36.366857 ] } },
{ "type": "Feature", "properties": { "name": "Evie", "address": "74 Church Street, Whittlesea, VIC, 3757", "latitude": -37.510615, "longitude": 145.118395, "score": 1.0218714476 }, "geometry": { "type": "Point", "coordinates": [ 145.118395, -37.510615 ] } },
{ "type": "Feature", "properties": { "name": "Evie", "address": "13 Albert Street, Kerang, VIC, 3579", "latitude": -35.734398, "longitude": 143.921582, "score": 1.0217623711 }, "geometry": { "type": "Point", "coordinates": [ 143.921582, -35.734398 ] } },
{ "type": "Feature", "properties": { "name": "Tesla", "address": "66-70 Kerang Murrabit Road, Kerang, VIC, 3579", "latitude": -35.732187, "longitude": 143.91998, "score": 1.0217443705 }, "geometry": { "type": "Point", "coordinates": [ 143.91998, -35.732187 ] } },
{ "type": "Feature", "properties": { "name": "Tesla", "address": "46 Kirkland Avenue West, Euroa, VIC, 3666", "latitude": -36.752888, "longitude": 145.573418, "score": 1.0216785669 }, "geometry": { "type": "Point", "coordinates": [ 145.573418, -36.752888 ] } },
{ "type": "Feature", "properties": { "name": "Tesla", "address": "10 High Street, Yea, VIC, 3717", "latitude": -37.210038, "longitude": 145.426132, "score": 1.0239940882 }, "geometry": { "type": "Point", "coordinates": [ 145.426132, -37.210038 ] } },
{ "type": "Feature", "properties": { "name": "ChargeFox", "address": "167 Tarcombe St, Euroa, VIC, 3666", "latitude": -36.742978, "longitude": 145.591058, "score": 1.0235639811 }, "geometry": { "type": "Point", "coordinates": [ 145.591058, -36.742978 ] } },
{ "type": "Feature", "properties": { "name": "ChargeFox", "address": "6572 Maroondah Highway, Yarck, VIC, 3719", "latitude": -37.103308, "longitude": 145.616192, "score": 1.0231639147 }, "geometry": { "type": "Point", "coordinates": [ 145.616192, -37.103308 ] } },
{ "type": "Feature", "properties": { "name": "bp pulse", "address": "1 Scanlon Drive, Melbourne, VIC, 3076", "latitude": -37.648115, "longitude": 144.994094, "score": 1.0229792595 }, "geometry": { "type": "Point", "coordinates": [ 144.994094, -37.648115 ] } },
{ "type": "Feature", "properties": { "name": "Exploren", "address": "9 Duffy Street, Melbourne, VIC, 3076", "latitude": -37.653967, "longitude": 145.012355, "score": 1.0228954554 }, "geometry": { "type": "Point", "coordinates": [ 145.012355, -37.653967 ] } },
{ "type": "Feature", "properties": { "name": "Tesla", "address": "571-583 High Street, Melbourne, VIC, 3076", "latitude": -37.653251, "longitude": 145.015959, "score": 1.022892952 }, "geometry": { "type": "Point", "coordinates": [ 145.015959, -37.653251 ] } },
{ "type": "Feature", "properties": { "name": "Tesla", "address": "2-10 Camp Road, Melbourne, VIC, 3061", "latitude": -37.689002, "longitude": 144.956617, "score": 1.0251368284 }, "geometry": { "type": "Point", "coordinates": [ 144.956617, -37.689002 ] } },
{ "type": "Feature", "properties": { "name": "ChargeFox", "address": "563 Pascoe Vale Road, Melbourne, VIC, 3044", "latitude": -37.723624, "longitude": 144.920987, "score": 1.0250244141 }, "geometry": { "type": "Point", "coordinates": [ 144.920987, -37.723624 ] } },
{ "type": "Feature", "properties": { "name": "ChargeFox", "address": "99 Jukes Road, Melbourne, VIC, 3060", "latitude": -37.702474, "longitude": 144.969519, "score": 1.024974823 }, "geometry": { "type": "Point", "coordinates": [ 144.969519, -37.702474 ] } },
{ "type": "Feature", "properties": { "name": "Evie", "address": "300 Station Street, Melbourne, VIC, 3075", "latitude": -37.673826, "longitude": 145.015771, "score": 1.0249601603 }, "geometry": { "type": "Point", "coordinates": [ 145.015771, -37.673826 ] } },
{ "type": "Feature", "properties": { "name": "ChargeFox", "address": "11 Boundary Road, Melbourne, VIC, 3046", "latitude": -37.718971, "longitude": 144.961488, "score": 1.0248860121000001 }, "geometry": { "type": "Point", "coordinates": [ 144.961488, -37.718971 ] } },
{ "type": "Feature", "properties": { "name": "EVUp", "address": "193-195 Gaffney Street, Melbourne, VIC, 3058", "latitude": -37.732427, "longitude": 144.951401, "score": 1.0299245119 }, "geometry": { "type": "Point", "coordinates": [ 144.951401, -37.732427 ] } },
{ "type": "Feature", "properties": { "name": "JOLT", "address": "257 Edwardes Street, Melbourne, VIC, 3073", "latitude": -37.714733, "longitude": 144.989148, "score": 1.0285446644 }, "geometry": { "type": "Point", "coordinates": [ 144.989148, -37.714733 ] } },
{ "type": "Feature", "properties": { "name": "Tesla", "address": "14-16 Hall Street, Melbourne, VIC, 3039", "latitude": -37.765579, "longitude": 144.922879, "score": 1.0281950235 }, "geometry": { "type": "Point", "coordinates": [ 144.922879, -37.765579 ] } },
{ "type": "Feature", "properties": { "name": "Evie", "address": "66 The Parade, Melbourne, VIC, 3032", "latitude": -37.772574, "longitude": 144.915231, "score": 1.0279123783 }, "geometry": { "type": "Point", "coordinates": [ 144.915231, -37.772574 ] } },
{ "type": "Feature", "properties": { "name": "JOLT", "address": "720-722 Gilbert Road, Melbourne, VIC, 3073", "latitude": -37.718363, "longitude": 144.993597, "score": 1.0277514458000001 }, "geometry": { "type": "Point", "coordinates": [ 144.993597, -37.718363 ] } },
{ "type": "Feature", "properties": { "name": "Evie", "address": "153 Elizabeth Street, Melbourne, VIC, 3058", "latitude": -37.729651, "longitude": 144.983645, "score": 1.0274074078 }, "geometry": { "type": "Point", "coordinates": [ 144.983645, -37.729651 ] } },
{ "type": "Feature", "properties": { "name": "ChargeFox", "address": "82 Russell Street, Melbourne, VIC, 3058", "latitude": -37.742407, "longitude": 144.967324, "score": 1.0273731947 }, "geometry": { "type": "Point", "coordinates": [ 144.967324, -37.742407 ] } },
{ "type": "Feature", "properties": { "name": "ChargeFox", "address": "90 Bell Street, Melbourne, VIC, 3058", "latitude": -37.740755, "longitude": 144.970074, "score": 1.0273309946 }, "geometry": { "type": "Point", "coordinates": [ 144.970074, -37.740755 ] } },
{ "type": "Feature", "properties": { "name": "JOLT", "address": "2D Cheddar Road, Melbourne, VIC, 3073", "latitude": -37.715549, "longitude": 145.008501, "score": 1.0267471075000001 }, "geometry": { "type": "Point", "coordinates": [ 145.008501, -37.715549 ] } },
{ "type": "Feature", "properties": { "name": "Evie", "address": "139 Curlewis Street, Swan Hill, VIC, 3585", "latitude": -35.341063, "longitude": 143.561731, "score": 1.0215371847000001 }, "geometry": { "type": "Point", "coordinates": [ 143.561731, -35.341063 ] } },
{ "type": "Feature", "properties": { "name": "Exploren", "address": "7540 Calder Highway, Sea Lake, VIC, 3533", "latitude": -35.513753, "longitude": 142.856347, "score": 1.0206882954000001 }, "geometry": { "type": "Point", "coordinates": [ 142.856347, -35.513753 ] } },
{ "type": "Feature", "properties": { "name": "EVUp", "address": "97 Railway Ave, Sea Lake, VIC, 3533", "latitude": -35.512654, "longitude": 142.855606, "score": 1.0206805468 }, "geometry": { "type": "Point", "coordinates": [ 142.855606, -35.512654 ] } },
{ "type": "Feature", "properties": { "name": "ChargeFox", "address": "95 Sutcliff Street, Sea Lake, VIC, 3533", "latitude": -35.503963, "longitude": 142.851919, "score": 1.0206279755000001 }, "geometry": { "type": "Point", "coordinates": [ 142.851919, -35.503963 ] } },
{ "type": "Feature", "properties": { "name": "Evie", "address": "115 Sea Lake Swan Hill Road, Sea Lake, VIC, 3533", "latitude": -35.504027, "longitude": 142.851732, "score": 1.0206276178 }, "geometry": { "type": "Point", "coordinates": [ 142.851732, -35.504027 ] } },
{ "type": "Feature", "properties": { "name": "Saascharge", "address": "68-72 Crispe Street, Deniliquin, NSW, 2701", "latitude": -35.537211, "longitude": 144.966481, "score": 1.0203905106 }, "geometry": { "type": "Point", "coordinates": [ 144.966481, -35.537211 ] } },
{ "type": "Feature", "properties": { "name": "EVUp", "address": "68 Crispe Street, Deniliquin, NSW, 2710", "latitude": -35.537269, "longitude": 144.966564, "score": 1.0203905106 }, "geometry": { "type": "Point", "coordinates": [ 144.966564, -35.537269 ] } },
{ "type": "Feature", "properties": { "name": "Exploren", "address": "266 Cressy St, Deniliquin, NSW, 2710", "latitude": -35.531447, "longitude": 144.964769, "score": 1.020373106 }, "geometry": { "type": "Point", "coordinates": [ 144.964769, -35.531447 ] } },
{ "type": "Feature", "properties": { "name": "EVUp", "address": "399 Cressy Street, Deniliquin, NSW, 2710", "latitude": -35.52643, "longitude": 144.961934, "score": 1.0203627348 }, "geometry": { "type": "Point", "coordinates": [ 144.961934, -35.52643 ] } },
{ "type": "Feature", "properties": { "name": "ChargeFox", "address": "1 Golf Club Rd, Deniliquin, NSW, 2710", "latitude": -35.536527, "longitude": 144.974228, "score": 1.0203590393 }, "geometry": { "type": "Point", "coordinates": [ 144.974228, -35.536527 ] } },
{ "type": "Feature", "properties": { "name": "ChargeFox", "address": "2-10 Homestead Avenue, Wallington, VIC, 3222", "latitude": -38.2217, "longitude": 144.536264, "score": 1.0900944471 }, "geometry": { "type": "Point", "coordinates": [ 144.536264, -38.2217 ] } },
{ "type": "Feature", "properties": { "name": "ChargeFox", "address": "17-21 Palmerston Street, Drysdale, VIC, 3222", "latitude": -38.174752, "longitude": 144.567191, "score": 1.0884830952 }, "geometry": { "type": "Point", "coordinates": [ 144.567191, -38.174752 ] } },
{ "type": "Feature", "properties": { "name": "Tesla", "address": "11 Coastal Boulevard, Ocean Grove, VIC, 3226", "latitude": -38.246668, "longitude": 144.540083, "score": 1.0832139254 }, "geometry": { "type": "Point", "coordinates": [ 144.540083, -38.246668 ] } },
{ "type": "Feature", "properties": { "name": "Exploren", "address": "25 Banks Rd, Mannerim, VIC, 3222", "latitude": -38.194443, "longitude": 144.612538, "score": 1.0711405277 }, "geometry": { "type": "Point", "coordinates": [ 144.612538, -38.194443 ] } },
{ "type": "Feature", "properties": { "name": "EVUp", "address": "39-41 Fenwick Street, Portarlington, VIC, 3223", "latitude": -38.115897, "longitude": 144.652297, "score": 1.066415906 }, "geometry": { "type": "Point", "coordinates": [ 144.652297, -38.115897 ] } },
{ "type": "Feature", "properties": { "name": "ChargeFox", "address": "50 Learmonth Street, Queenscliff, VIC, 3225", "latitude": -38.267948, "longitude": 144.659061, "score": 1.0491064787 }, "geometry": { "type": "Point", "coordinates": [ 144.659061, -38.267948 ] } },
{ "type": "Feature", "properties": { "name": "ChargeFox", "address": "3746 Point Nepean Road, Portsea, VIC, 3944", "latitude": -38.319795, "longitude": 144.714649, "score": 1.0335792303 }, "geometry": { "type": "Point", "coordinates": [ 144.714649, -38.319795 ] } },
{ "type": "Feature", "properties": { "name": "Evie", "address": "860 Melbourne Road, Sorrento, VIC, 3943", "latitude": -38.338561, "longitude": 144.737043, "score": 1.029112339 }, "geometry": { "type": "Point", "coordinates": [ 144.737043, -38.338561 ] } },
{ "type": "Feature", "properties": { "name": "ChargeHub", "address": "23 Constitution Hill Road, Sorrento, VIC, 3943", "latitude": -38.339581, "longitude": 144.741711, "score": 1.028518796 }, "geometry": { "type": "Point", "coordinates": [ 144.741711, -38.339581 ] } },
{ "type": "Feature", "properties": { "name": "EVUp", "address": "2415 Point Nepean Road, Rye, VIC, 3941", "latitude": -38.370719, "longitude": 144.820535, "score": 1.0251531601 }, "geometry": { "type": "Point", "coordinates": [ 144.820535, -38.370719 ] } },
{ "type": "Feature", "properties": { "name": "Tesla", "address": "14 Nelson Street, Rye, VIC, 3941", "latitude": -38.371155, "longitude": 144.820937, "score": 1.0251485109 }, "geometry": { "type": "Point", "coordinates": [ 144.820937, -38.371155 ] } },
{ "type": "Feature", "properties": { "name": "bp pulse", "address": "Point Nepean Road, Rye, VIC, 3941", "latitude": -38.371435, "longitude": 144.827662, "score": 1.0251032114 }, "geometry": { "type": "Point", "coordinates": [ 144.827662, -38.371435 ] } },
{ "type": "Feature", "properties": { "name": "Tesla", "address": "16 Morley Avenue, Wye River, VIC, 3234", "latitude": -38.639049, "longitude": 143.890503, "score": 1.0570636988 }, "geometry": { "type": "Point", "coordinates": [ 143.890503, -38.639049 ] } },
{ "type": "Feature", "properties": { "name": "Tesla", "address": "2 Moore Street, Apollo Bay, VIC, 3233", "latitude": -38.757036, "longitude": 143.668552, "score": 1.0252194405 }, "geometry": { "type": "Point", "coordinates": [ 143.668552, -38.757036 ] } },
{ "type": "Feature", "properties": { "name": "Tesla", "address": "29-35 Great Ocean Road, Apollo Bay, VIC, 3233", "latitude": -38.758798, "longitude": 143.670306, "score": 1.0252113342 }, "geometry": { "type": "Point", "coordinates": [ 143.670306, -38.758798 ] } },
{ "type": "Feature", "properties": { "name": "Evie", "address": "14 Pascoe Street, Apollo Bay, VIC, 3233", "latitude": -38.7583, "longitude": 143.668996, "score": 1.0252104998 }, "geometry": { "type": "Point", "coordinates": [ 143.668996, -38.7583 ] } },
{ "type": "Feature", "properties": { "name": "Porsche Smart Mobility", "address": "Browns Rd, Fingal, VIC, 3939", "latitude": -38.393668, "longitude": 144.844686, "score": 1.0246189833 }, "geometry": { "type": "Point", "coordinates": [ 144.844686, -38.393668 ] } },
{ "type": "Feature", "properties": { "name": "Exploren", "address": "140 Springs Lane, Fingal, VIC, 3939", "latitude": -38.408405, "longitude": 144.843329, "score": 1.0245978832 }, "geometry": { "type": "Point", "coordinates": [ 144.843329, -38.408405 ] } },
{ "type": "Feature", "properties": { "name": "ChargeFox", "address": "45 Peter Thomson Drive, Fingal, VIC, 3939", "latitude": -38.405138, "longitude": 144.853464, "score": 1.0245337486 }, "geometry": { "type": "Point", "coordinates": [ 144.853464, -38.405138 ] } },
{ "type": "Feature", "properties": { "name": "Porsche Smart Mobility", "address": "160 Sandy Road, Fingal, VIC, 3939", "latitude": -38.418999, "longitude": 144.860488, "score": 1.0244544744 }, "geometry": { "type": "Point", "coordinates": [ 144.860488, -38.418999 ] } },
{ "type": "Feature", "properties": { "name": "EVERTY", "address": "Cranston Ct, Rosebud, VIC, 3939", "latitude": -38.36806, "longitude": 144.905142, "score": 1.0242384672 }, "geometry": { "type": "Point", "coordinates": [ 144.905142, -38.36806 ] } },
{ "type": "Feature", "properties": { "name": "Tesla", "address": "306 Jetty Road, Rosebud, VIC, 3939", "latitude": -38.380924, "longitude": 144.912545, "score": 1.0241675377 }, "geometry": { "type": "Point", "coordinates": [ 144.912545, -38.380924 ] } },
{ "type": "Feature", "properties": { "name": "Tesla", "address": "Trent Jones Dr, Cape Schanck, VIC, 3939", "latitude": -38.461803, "longitude": 144.892685, "score": 1.024130702 }, "geometry": { "type": "Point", "coordinates": [ 144.892685, -38.461803 ] } },
{ "type": "Feature", "properties": { "name": "Evie", "address": "16-18 Pier Street, Dromana, VIC, 3936", "latitude": -38.333528, "longitude": 144.965927, "score": 1.0238622427 }, "geometry": { "type": "Point", "coordinates": [ 144.965927, -38.333528 ] } },
{ "type": "Feature", "properties": { "name": "EVUp", "address": "11 Dalkeith Drive, Dromana, VIC, 3936", "latitude": -38.334671, "longitude": 144.985056, "score": 1.0269817114 }, "geometry": { "type": "Point", "coordinates": [ 144.985056, -38.334671 ] } },
{ "type": "Feature", "properties": { "name": "EVUp", "address": "133 Nepean Highway, Dromana, VIC, 3936", "latitude": -38.330475, "longitude": 144.996107, "score": 1.0259635448 }, "geometry": { "type": "Point", "coordinates": [ 144.996107, -38.330475 ] } },
{ "type": "Feature", "properties": { "name": "ChargeFox", "address": "1 Syme Street, Melbourne, VIC, 3016", "latitude": -37.863119, "longitude": 144.904707, "score": 1.0255937576 }, "geometry": { "type": "Point", "coordinates": [ 144.904707, -37.863119 ] } },
{ "type": "Feature", "properties": { "name": "ChargeFox", "address": "31-69 McLister Street, Melbourne, VIC, 3015", "latitude": -37.831621, "longitude": 144.883234, "score": 1.0255371332000001 }, "geometry": { "type": "Point", "coordinates": [ 144.883234, -37.831621 ] } },
{ "type": "Feature", "properties": { "name": "Evie", "address": "42 Waterloo Place, Mornington, VIC, 3931", "latitude": -38.224212, "longitude": 145.039703, "score": 1.0255237818 }, "geometry": { "type": "Point", "coordinates": [ 145.039703, -38.224212 ] } },
{ "type": "Feature", "properties": { "name": "Evie", "address": "38 Raleigh Street, Melbourne, VIC, 3011", "latitude": -37.802428, "longitude": 144.894796, "score": 1.0474735498000001 }, "geometry": { "type": "Point", "coordinates": [ 144.894796, -37.802428 ] } },
{ "type": "Feature", "properties": { "name": "Evie", "address": "61 Napier Street, Melbourne, VIC, 3011", "latitude": -37.804365, "longitude": 144.900883, "score": 1.046376586 }, "geometry": { "type": "Point", "coordinates": [ 144.900883, -37.804365 ] } },
{ "type": "Feature", "properties": { "name": "Lorbek Luxury Cars", "address": "30 Prohasky Street, Melbourne, VIC, 3207", "latitude": -37.832052, "longitude": 144.919435, "score": 1.0447824001 }, "geometry": { "type": "Point", "coordinates": [ 144.919435, -37.832052 ] } },
{ "type": "Feature", "properties": { "name": "EVERTY", "address": "West Gate Fwy, Melbourne, VIC, 3207", "latitude": -37.827995, "longitude": 144.925748, "score": 1.0432252884 }, "geometry": { "type": "Point", "coordinates": [ 144.925748, -37.827995 ] } },
{ "type": "Feature", "properties": { "name": "ChargeFox", "address": "481 Plummer Street, Melbourne, VIC, 3207", "latitude": -37.83076, "longitude": 144.930032, "score": 1.042571187 }, "geometry": { "type": "Point", "coordinates": [ 144.930032, -37.83076 ] } },
{ "type": "Feature", "properties": { "name": "ChargeFox", "address": "350 Bridge Street, Melbourne, VIC, 3207", "latitude": -37.828431, "longitude": 144.934477, "score": 1.041560173 }, "geometry": { "type": "Point", "coordinates": [ 144.934477, -37.828431 ] } },
{ "type": "Feature", "properties": { "name": "ChargeFox", "address": "155 Bertie Street, Melbourne, VIC, 3207", "latitude": -37.826266, "longitude": 144.935318, "score": 1.0412580967 }, "geometry": { "type": "Point", "coordinates": [ 144.935318, -37.826266 ] } },
{ "type": "Feature", "properties": { "name": "Exploren", "address": "1 Lennon Street, Melbourne, VIC, 3003", "latitude": -37.800608, "longitude": 144.927389, "score": 1.0408694744 }, "geometry": { "type": "Point", "coordinates": [ 144.927389, -37.800608 ] } },
{ "type": "Feature", "properties": { "name": "ChargeFox", "address": "72 Altona Street, Melbourne, VIC, 3031", "latitude": -37.797015, "longitude": 144.92607, "score": 1.0408238173 }, "geometry": { "type": "Point", "coordinates": [ 144.92607, -37.797015 ] } },
{ "type": "Feature", "properties": { "name": "Tesla", "address": "88 Craigie Road, Mount Martha, VIC, 3934", "latitude": -38.256499, "longitude": 145.037711, "score": 1.0423535109 }, "geometry": { "type": "Point", "coordinates": [ 145.037711, -38.256499 ] } },
{ "type": "Feature", "properties": { "name": "Porsche", "address": "Harrisons Road, Dromana, VIC, 3936", "latitude": -38.335797, "longitude": 145.018779, "score": 1.0414334536000001 }, "geometry": { "type": "Point", "coordinates": [ 145.018779, -38.335797 ] } },
{ "type": "Feature", "properties": { "name": "Tesla", "address": "1333 Mornington Flinders Road, Main Ridge, VIC, 3928", "latitude": -38.394317, "longitude": 144.994243, "score": 1.0403935909 }, "geometry": { "type": "Point", "coordinates": [ 144.994243, -38.394317 ] } },
{ "type": "Feature", "properties": { "name": "Tesla", "address": "Mornington VIC, Mornington, VIC, 3931", "latitude": -38.234305, "longitude": 145.051085, "score": 1.0403935909 }, "geometry": { "type": "Point", "coordinates": [ 145.051085, -38.234305 ] } },
{ "type": "Feature", "properties": { "name": "EVUp", "address": "65 Watt Road, Mornington, VIC, 3931", "latitude": -38.231717, "longitude": 145.056379, "score": 1.0394538641 }, "geometry": { "type": "Point", "coordinates": [ 145.056379, -38.231717 ] } },
{ "type": "Feature", "properties": { "name": "EVUp", "address": "1132 Nepean Highway, Mornington, VIC, 3931", "latitude": -38.220694, "longitude": 145.061207, "score": 1.0387524366000001 }, "geometry": { "type": "Point", "coordinates": [ 145.061207, -38.220694 ] } },
{ "type": "Feature", "properties": { "name": "EVUp", "address": "120 Arthurs Seat Road, Red Hill, VIC, 3937", "latitude": -38.372078, "longitude": 145.018461, "score": 1.0384521484 }, "geometry": { "type": "Point", "coordinates": [ 145.018461, -38.372078 ] } },
{ "type": "Feature", "properties": { "name": "JOLT", "address": "588 Balcombe Road, Melbourne, VIC, 3193", "latitude": -37.975499, "longitude": 145.017458, "score": 1.0577548742 }, "geometry": { "type": "Point", "coordinates": [ 145.017458, -37.975499 ] } },
{ "type": "Feature", "properties": { "name": "AmpCharge", "address": "72-75 Beach Road, Melbourne, VIC, 3188", "latitude": -37.94454, "longitude": 145.001726, "score": 1.0557507277 }, "geometry": { "type": "Point", "coordinates": [ 145.001726, -37.94454 ] } },
{ "type": "Feature", "properties": { "name": "Exploren", "address": "76 Royal Ave, Melbourne, VIC, 3191", "latitude": -37.959698, "longitude": 145.016872, "score": 1.0551898479 }, "geometry": { "type": "Point", "coordinates": [ 145.016872, -37.959698 ] } },
{ "type": "Feature", "properties": { "name": "JOLT", "address": "353 Balcombe Road, Melbourne, VIC, 3193", "latitude": -37.978966, "longitude": 145.045237, "score": 1.0520658493 }, "geometry": { "type": "Point", "coordinates": [ 145.045237, -37.978966 ] } },
{ "type": "Feature", "properties": { "name": "EVX", "address": "Brixton Rd, Melbourne, VIC, 3192", "latitude": -37.955699, "longitude": 145.031732, "score": 1.0513659716 }, "geometry": { "type": "Point", "coordinates": [ 145.031732, -37.955699 ] } },
{ "type": "Feature", "properties": { "name": "EVUp", "address": "48 Cook Street, Flinders, VIC, 3929", "latitude": -38.473752, "longitude": 145.014978, "score": 1.0234260559 }, "geometry": { "type": "Point", "coordinates": [ 145.014978, -38.473752 ] } },
{ "type": "Feature", "properties": { "name": "Evie", "address": "33 Cook Street, Flinders, VIC, 3929", "latitude": -38.474464, "longitude": 145.018779, "score": 1.0234009027 }, "geometry": { "type": "Point", "coordinates": [ 145.018779, -38.474464 ] } },
{ "type": "Feature", "properties": { "name": "Tesla", "address": "23-31 Cook Street, Flinders, VIC, 3929", "latitude": -38.47445, "longitude": 145.019202, "score": 1.0233981609 }, "geometry": { "type": "Point", "coordinates": [ 145.019202, -38.47445 ] } },
{ "type": "Feature", "properties": { "name": "Tesla", "address": "18 Tregea Street, Port Campbell, VIC, 3269", "latitude": -38.618751, "longitude": 142.99547, "score": 1.0230869055 }, "geometry": { "type": "Point", "coordinates": [ 142.99547, -38.618751 ] } },
{ "type": "Feature", "properties": { "name": "EVX", "address": "8 Eddie Street, Melbourne, VIC, 3190", "latitude": -37.953301, "longitude": 145.03337, "score": 1.07611835 }, "geometry": { "type": "Point", "coordinates": [ 145.03337, -37.953301 ] } },
{ "type": "Feature", "properties": { "name": "JOLT", "address": "152 Weatherall Road, Melbourne, VIC, 3192", "latitude": -37.972013, "longitude": 145.050222, "score": 1.075701952 }, "geometry": { "type": "Point", "coordinates": [ 145.050222, -37.972013 ] } },
{ "type": "Feature", "properties": { "name": "JOLT", "address": "322 Bay Road, Melbourne, VIC, 3192", "latitude": -37.956312, "longitude": 145.041463, "score": 1.0746302605 }, "geometry": { "type": "Point", "coordinates": [ 145.041463, -37.956312 ] } },
{ "type": "Feature", "properties": { "name": "EVUp", "address": "63 Venice Street, Melbourne, VIC, 3194", "latitude": -37.989373, "longitude": 145.068434, "score": 1.074023962 }, "geometry": { "type": "Point", "coordinates": [ 145.068434, -37.989373 ] } },
{ "type": "Feature", "properties": { "name": "ChargeFox", "address": "27 Wells Street, Melbourne, VIC, 3199", "latitude": -38.143541, "longitude": 145.122714, "score": 1.0728446245000001 }, "geometry": { "type": "Point", "coordinates": [ 145.122714, -38.143541 ] } },
{ "type": "Feature", "properties": { "name": "JOLT", "address": "493A Highett Road, Melbourne, VIC, 3190", "latitude": -37.948561, "longitude": 145.041063, "score": 1.0729465485 }, "geometry": { "type": "Point", "coordinates": [ 145.041063, -37.948561 ] } },
{ "type": "Feature", "properties": { "name": "AmpCharge", "address": "299 Charman Road, Melbourne, VIC, 3192", "latitude": -37.96498, "longitude": 145.055571, "score": 1.0727157593000001 }, "geometry": { "type": "Point", "coordinates": [ 145.055571, -37.96498 ] } },
{ "type": "Feature", "properties": { "name": "Tesla", "address": "26 Merricks Road, Merricks, VIC, 3916", "latitude": -38.3863, "longitude": 145.0862, "score": 1.0580524206 }, "geometry": { "type": "Point", "coordinates": [ 145.0862, -38.3863 ] } },
{ "type": "Feature", "properties": { "name": "EVUp", "address": "136 Graydens Road, Moorooduc, VIC, 3933", "latitude": -38.282403, "longitude": 145.122268, "score": 1.0576630831 }, "geometry": { "type": "Point", "coordinates": [ 145.122268, -38.282403 ] } },
{ "type": "Feature", "properties": { "name": "ChargeFox", "address": "2 Hastings Road, Melbourne, VIC, 3199", "latitude": -38.151154, "longitude": 145.126781, "score": 1.0546123981 }, "geometry": { "type": "Point", "coordinates": [ 145.126781, -38.151154 ] } },
{ "type": "Feature", "properties": { "name": "Exploren", "address": "15 Beach St, Melbourne, VIC, 3199", "latitude": -38.139893, "longitude": 145.124419, "score": 1.054407835 }, "geometry": { "type": "Point", "coordinates": [ 145.124419, -38.139893 ] } },
{ "type": "Feature", "properties": { "name": "Exploren", "address": "47 Moorooduc Hwy, Melbourne, VIC, 3199", "latitude": -38.151854, "longitude": 145.134898, "score": 1.0526623726 }, "geometry": { "type": "Point", "coordinates": [ 145.134898, -38.151854 ] } },
{ "type": "Feature", "properties": { "name": "Evie", "address": "8 Swansea Road, Melbourne, VIC, 3196", "latitude": -38.054794, "longitude": 145.115953, "score": 1.0478506088 }, "geometry": { "type": "Point", "coordinates": [ 145.115953, -38.054794 ] } },
{ "type": "Feature", "properties": { "name": "Tesla", "address": "Sugarloaf Rd, Eildon, VIC, 3713", "latitude": -37.211946, "longitude": 145.907618, "score": 1.1808577776 }, "geometry": { "type": "Point", "coordinates": [ 145.907618, -37.211946 ] } },
{ "type": "Feature", "properties": { "name": "Evie", "address": "8 Webster Street, Alexandra, VIC, 3714", "latitude": -37.191962, "longitude": 145.711163, "score": 1.1793040037 }, "geometry": { "type": "Point", "coordinates": [ 145.711163, -37.191962 ] } },
{ "type": "Feature", "properties": { "name": "Tesla", "address": "32 Murchison Street, Marysville, VIC, 3779", "latitude": -37.51015, "longitude": 145.74607, "score": 1.1539279222000001 }, "geometry": { "type": "Point", "coordinates": [ 145.74607, -37.51015 ] } },
{ "type": "Feature", "properties": { "name": "Tesla", "address": "436 Maroondah Highway, Narbethong, VIC, 3778", "latitude": -37.564965, "longitude": 145.654835, "score": 1.1146119833000001 }, "geometry": { "type": "Point", "coordinates": [ 145.654835, -37.564965 ] } },
{ "type": "Feature", "properties": { "name": "Tesla", "address": "145 Mount Buller Road, Mansfield, VIC, 3722", "latitude": -37.060471, "longitude": 146.09837, "score": 1.0752308369000001 }, "geometry": { "type": "Point", "coordinates": [ 146.09837, -37.060471 ] } },
{ "type": "Feature", "properties": { "name": "Evie", "address": "21 McDonald Street, Mansfield, VIC, 3722", "latitude": -37.050834, "longitude": 146.086721, "score": 1.0748323202000001 }, "geometry": { "type": "Point", "coordinates": [ 146.086721, -37.050834 ] } },
{ "type": "Feature", "properties": { "name": "EVUp", "address": "30 Nolan Street, Mansfield, VIC, 3722", "latitude": -37.051514, "longitude": 146.089844, "score": 1.0743684769 }, "geometry": { "type": "Point", "coordinates": [ 146.089844, -37.051514 ] } },
{ "type": "Feature", "properties": { "name": "EVUp", "address": "390 Pollards Road, Mansfield, VIC, 3722", "latitude": -37.088256, "longitude": 146.16784, "score": 1.0664000511 }, "geometry": { "type": "Point", "coordinates": [ 146.16784, -37.088256 ] } },
{ "type": "Feature", "properties": { "name": "Tesla", "address": "Cnr Pollards Rd and Stoneys Road, Mansfield, VIC, 3722", "latitude": -37.087018, "longitude": 146.167151, "score": 1.0662750006 }, "geometry": { "type": "Point", "coordinates": [ 146.167151, -37.087018 ] } },
{ "type": "Feature", "properties": { "name": "Evie", "address": "80 River Street, Healesville, VIC, 3777", "latitude": -37.653798, "longitude": 145.514106, "score": 1.0568059683 }, "geometry": { "type": "Point", "coordinates": [ 145.514106, -37.653798 ] } },
{ "type": "Feature", "properties": { "name": "Tesla", "address": "80 Healesville Kinglake Road, Healesville, VIC, 3777", "latitude": -37.650208, "longitude": 145.50327, "score": 1.0561742783000001 }, "geometry": { "type": "Point", "coordinates": [ 145.50327, -37.650208 ] } },
{ "type": "Feature", "properties": { "name": "Tesla", "address": "58 Pinnacle Lane, Dixons Creek, VIC, 3775", "latitude": -37.59736, "longitude": 145.411541, "score": 1.053434968 }, "geometry": { "type": "Point", "coordinates": [ 145.411541, -37.59736 ] } },
{ "type": "Feature", "properties": { "name": "EVUp", "address": "1 Aitken Crescent, Kinglake, VIC, 3763", "latitude": -37.530104, "longitude": 145.340679, "score": 1.0517164469 }, "geometry": { "type": "Point", "coordinates": [ 145.340679, -37.530104 ] } },
{ "type": "Feature", "properties": { "name": "EVUp", "address": "19 Whittlesea Kinglake Road, Kinglake, VIC, 3763", "latitude": -37.53151, "longitude": 145.339578, "score": 1.0512647629 }, "geometry": { "type": "Point", "coordinates": [ 145.339578, -37.53151 ] } },
{ "type": "Feature", "properties": { "name": "Exploren", "address": "313 Healesville Yarra Glen Road, Healesville, VIC, 3777", "latitude": -37.660015, "longitude": 145.469606, "score": 1.0487682819 }, "geometry": { "type": "Point", "coordinates": [ 145.469606, -37.660015 ] } },
{ "type": "Feature", "properties": { "name": "Tesla", "address": "30 Woods Point Road, Warburton, VIC, 3799", "latitude": -37.753398, "longitude": 145.705362, "score": 1.0452845097000001 }, "geometry": { "type": "Point", "coordinates": [ 145.705362, -37.753398 ] } },
{ "type": "Feature", "properties": { "name": "ChargeFox", "address": "28 Willow Bend Drive, Steels Creek, VIC, 3775", "latitude": -37.60832, "longitude": 145.375346, "score": 1.0449591875 }, "geometry": { "type": "Point", "coordinates": [ 145.375346, -37.60832 ] } },
{ "type": "Feature", "properties": { "name": "Porsche Smart Mobility", "address": "Maroondah Highway, Coldstream, VIC, 3770", "latitude": -37.68767, "longitude": 145.457298, "score": 1.0411920547 }, "geometry": { "type": "Point", "coordinates": [ 145.457298, -37.68767 ] } },
{ "type": "Feature", "properties": { "name": "Tesla", "address": "864 Maroondah Highway, Coldstream, VIC, 3770", "latitude": -37.687882, "longitude": 145.457554, "score": 1.0411789417 }, "geometry": { "type": "Point", "coordinates": [ 145.457554, -37.687882 ] } },
{ "type": "Feature", "properties": { "name": "ChargeFox", "address": "45 Bell Street, Yarra Glen, VIC, 3775", "latitude": -37.656889, "longitude": 145.373795, "score": 1.0366278887 }, "geometry": { "type": "Point", "coordinates": [ 145.373795, -37.656889 ] } },
{ "type": "Feature", "properties": { "name": "Tesla", "address": "1 Mimosa Dr, Merrijig (West), VIC, 3723", "latitude": -37.108811, "longitude": 146.337112, "score": 1.0357686281 }, "geometry": { "type": "Point", "coordinates": [ 146.337112, -37.108811 ] } },
{ "type": "Feature", "properties": { "name": "Evie", "address": "1-3 Park Road, Yarra Junction, VIC, 3797", "latitude": -37.780958, "longitude": 145.613177, "score": 1.0348334312 }, "geometry": { "type": "Point", "coordinates": [ 145.613177, -37.780958 ] } },
{ "type": "Feature", "properties": { "name": "ChargeFox", "address": "460-462 Maroondah Highway, Melbourne, VIC, 3140", "latitude": -37.754735, "longitude": 145.363701, "score": 1.0254808664 }, "geometry": { "type": "Point", "coordinates": [ 145.363701, -37.754735 ] } },
{ "type": "Feature", "properties": { "name": "ChargeFox", "address": "Horse Hill Car Park Rd, Mount Buller, VIC, 3723", "latitude": -37.139648, "longitude": 146.45559, "score": 1.0254735947 }, "geometry": { "type": "Point", "coordinates": [ 146.45559, -37.139648 ] } },
{ "type": "Feature", "properties": { "name": "Evie", "address": "246A Maroondah Highway, Melbourne, VIC, 3116", "latitude": -37.76114, "longitude": 145.312048, "score": 1.0251771212 }, "geometry": { "type": "Point", "coordinates": [ 145.312048, -37.76114 ] } },
{ "type": "Feature", "properties": { "name": "ChargeFox", "address": "129-163 Main Hurstbridge Road, Melbourne, VIC, 3089", "latitude": -37.673723, "longitude": 145.166084, "score": 1.0249150991 }, "geometry": { "type": "Point", "coordinates": [ 145.166084, -37.673723 ] } },
{ "type": "Feature", "properties": { "name": "ChargeFox", "address": "4-16 Devon Street, Melbourne, VIC, 3136", "latitude": -37.79692, "longitude": 145.279866, "score": 1.0247607231 }, "geometry": { "type": "Point", "coordinates": [ 145.279866, -37.79692 ] } },
{ "type": "Feature", "properties": { "name": "Evie", "address": "47 Maroondah Highway, Melbourne, VIC, 3136", "latitude": -37.790587, "longitude": 145.262057, "score": 1.0247180462000001 }, "geometry": { "type": "Point", "coordinates": [ 145.262057, -37.790587 ] } },
{ "type": "Feature", "properties": { "name": "bp pulse", "address": "Main Road, Melbourne, VIC, 3095", "latitude": -37.704, "longitude": 145.1604, "score": 1.0247122049 }, "geometry": { "type": "Point", "coordinates": [ 145.1604, -37.704 ] } },
{ "type": "Feature", "properties": { "name": "AmpCharge", "address": "Gatwick Rd, Melbourne, VIC, 3153", "latitude": -37.823223, "longitude": 145.296273, "score": 1.024648428 }, "geometry": { "type": "Point", "coordinates": [ 145.296273, -37.823223 ] } },
{ "type": "Feature", "properties": { "name": "Tesla", "address": "129 Olinda Monbulk Road, Melbourne, VIC, 3788", "latitude": -37.871877, "longitude": 145.380627, "score": 1.0246282816000001 }, "geometry": { "type": "Point", "coordinates": [ 145.380627, -37.871877 ] } },
{ "type": "Feature", "properties": { "name": "bp pulse", "address": "274 Diamond Creek Road, Melbourne, VIC, 3089", "latitude": -37.680156, "longitude": 145.123334, "score": 1.0246193409 }, "geometry": { "type": "Point", "coordinates": [ 145.123334, -37.680156 ] } },
{ "type": "Feature", "properties": { "name": "bp pulse", "address": "420 Maroondah Highway, Melbourne, VIC, 3134", "latitude": -37.798928, "longitude": 145.25378, "score": 1.0246195793 }, "geometry": { "type": "Point", "coordinates": [ 145.25378, -37.798928 ] } },
{ "type": "Feature", "properties": { "name": "Evie", "address": "28 Arthur Street, Melbourne, VIC, 3095", "latitude": -37.714756, "longitude": 145.150527, "score": 1.0245937109000001 }, "geometry": { "type": "Point", "coordinates": [ 145.150527, -37.714756 ] } },
{ "type": "Feature", "properties": { "name": "ChargeFox", "address": "40 Brougham Street, Melbourne, VIC, 3095", "latitude": -37.72293, "longitude": 145.142444, "score": 1.0245008469000001 }, "geometry": { "type": "Point", "coordinates": [ 145.142444, -37.72293 ] } },
{ "type": "Feature", "properties": { "name": "ChargeFox", "address": "44 Civic Drive, Melbourne, VIC, 3088", "latitude": -37.689303, "longitude": 145.110691, "score": 1.0244954824000001 }, "geometry": { "type": "Point", "coordinates": [ 145.110691, -37.689303 ] } },
{ "type": "Feature", "properties": { "name": "Evie", "address": "368 Forest Road, Melbourne, VIC, 3154", "latitude": -37.856151, "longitude": 145.315224, "score": 1.0244884491 }, "geometry": { "type": "Point", "coordinates": [ 145.315224, -37.856151 ] } },
{ "type": "Feature", "properties": { "name": "Tesla", "address": "261 Mount Dandenong Tourist Road, Melbourne, VIC, 3786", "latitude": -37.872461, "longitude": 145.343711, "score": 1.0244812965000001 }, "geometry": { "type": "Point", "coordinates": [ 145.343711, -37.872461 ] } },
{ "type": "Feature", "properties": { "name": "Evie", "address": "181 Reynolds Road, Melbourne, VIC, 3109", "latitude": -37.762265, "longitude": 145.16863, "score": 1.0244169235 }, "geometry": { "type": "Point", "coordinates": [ 145.16863, -37.762265 ] } },
{ "type": "Feature", "properties": { "name": "AmpCharge", "address": "377 Plenty Road, Melbourne, VIC, 3082", "latitude": -37.659606, "longitude": 145.073586, "score": 1.0244140625 }, "geometry": { "type": "Point", "coordinates": [ 145.073586, -37.659606 ] } },
{ "type": "Feature", "properties": { "name": "ChargeFox", "address": "1 Bedford Road, Melbourne, VIC, 3134", "latitude": -37.815512, "longitude": 145.230885, "score": 1.024394989 }, "geometry": { "type": "Point", "coordinates": [ 145.230885, -37.815512 ] } },
{ "type": "Feature", "properties": { "name": "Tesla", "address": "175 Maroondah Highway, Melbourne, VIC, 3134", "latitude": -37.814734, "longitude": 145.229616, "score": 1.0243941545 }, "geometry": { "type": "Point", "coordinates": [ 145.229616, -37.814734 ] } },
{ "type": "Feature", "properties": { "name": "eo Charging", "address": "Flintoff St, Melbourne, VIC, 3088", "latitude": -37.703785, "longitude": 145.105091, "score": 1.024387002 }, "geometry": { "type": "Point", "coordinates": [ 145.105091, -37.703785 ] } },
{ "type": "Feature", "properties": { "name": "JOLT", "address": "750 Mountain Highway, Melbourne, VIC, 3153", "latitude": -37.841082, "longitude": 145.266676, "score": 1.0243858099000001 }, "geometry": { "type": "Point", "coordinates": [ 145.266676, -37.841082 ] } },
{ "type": "Feature", "properties": { "name": "Exploren", "address": "1 Flintoff Street, Melbourne, VIC, 3088", "latitude": -37.70439, "longitude": 145.104711, "score": 1.0243816376 }, "geometry": { "type": "Point", "coordinates": [ 145.104711, -37.70439 ] } },
{ "type": "Feature", "properties": { "name": "ChargeFox", "address": "25 Main Street, Melbourne, VIC, 3088", "latitude": -37.70228, "longitude": 145.102382, "score": 1.0243787766000001 }, "geometry": { "type": "Point", "coordinates": [ 145.102382, -37.70228 ] } },
{ "type": "Feature", "properties": { "name": "JOLT", "address": "24 High Street, Melbourne, VIC, 3153", "latitude": -37.841978, "longitude": 145.265582, "score": 1.0243746042 }, "geometry": { "type": "Point", "coordinates": [ 145.265582, -37.841978 ] } },
{ "type": "Feature", "properties": { "name": "ChargeFox", "address": "2 Janefield Drive, Melbourne, VIC, 3083", "latitude": -37.682236, "longitude": 145.071087, "score": 1.0242916346 }, "geometry": { "type": "Point", "coordinates": [ 145.071087, -37.682236 ] } },
{ "type": "Feature", "properties": { "name": "Exploren", "address": "2 Janefield Dr, Melbourne, VIC, 3083", "latitude": -37.681135, "longitude": 145.070065, "score": 1.0242906809000001 }, "geometry": { "type": "Point", "coordinates": [ 145.070065, -37.681135 ] } },
{ "type": "Feature", "properties": { "name": "Evie", "address": "19 Graduate Rd, Melbourne, VIC, 3083", "latitude": -37.683069, "longitude": 145.071064, "score": 1.0242874622 }, "geometry": { "type": "Point", "coordinates": [ 145.071064, -37.683069 ] } },
{ "type": "Feature", "properties": { "name": "ChargeFox", "address": "Clements Dr, Melbourne, VIC, 3083", "latitude": -37.681565, "longitude": 145.062994, "score": 1.024245739 }, "geometry": { "type": "Point", "coordinates": [ 145.062994, -37.681565 ] } },
{ "type": "Feature", "properties": { "name": "Evie", "address": "Reynolds Lane, Melbourne, VIC, 3160", "latitude": -37.908246, "longitude": 145.353451, "score": 1.024242878 }, "geometry": { "type": "Point", "coordinates": [ 145.353451, -37.908246 ] } },
{ "type": "Feature", "properties": { "name": "ChargeFox", "address": "2A Belgrave Gembrook Road, Melbourne, VIC, 3160", "latitude": -37.910077, "longitude": 145.354476, "score": 1.0242325068 }, "geometry": { "type": "Point", "coordinates": [ 145.354476, -37.910077 ] } },
{ "type": "Feature", "properties": { "name": "JOLT", "address": "100 Station Street, Melbourne, VIC, 3156", "latitude": -37.88185, "longitude": 145.294818, "score": 1.0242137909 }, "geometry": { "type": "Point", "coordinates": [ 145.294818, -37.88185 ] } },
{ "type": "Feature", "properties": { "name": "Evie", "address": "401 Canterbury Road, Melbourne, VIC, 3134", "latitude": -37.831918, "longitude": 145.213897, "score": 1.0242036581 }, "geometry": { "type": "Point", "coordinates": [ 145.213897, -37.831918 ] } },
{ "type": "Feature", "properties": { "name": "ChargeFox", "address": "55 Clements Avenue, Melbourne, VIC, 3083", "latitude": -37.704541, "longitude": 145.072028, "score": 1.0241879225 }, "geometry": { "type": "Point", "coordinates": [ 145.072028, -37.704541 ] } },
{ "type": "Feature", "properties": { "name": "JOLT", "address": "193-195 Stud Road, Melbourne, VIC, 3152", "latitude": -37.858866, "longitude": 145.240953, "score": 1.0241459608000001 }, "geometry": { "type": "Point", "coordinates": [ 145.240953, -37.858866 ] } },
{ "type": "Feature", "properties": { "name": "JOLT", "address": "1880 Ferntree Gully Road, Melbourne, VIC, 3156", "latitude": -37.883449, "longitude": 145.275748, "score": 1.024123311 }, "geometry": { "type": "Point", "coordinates": [ 145.275748, -37.883449 ] } },
{ "type": "Feature", "properties": { "name": "EVERTY", "address": "Norcal Rd, Melbourne, VIC, 3131", "latitude": -37.824939, "longitude": 145.180184, "score": 1.0240863562 }, "geometry": { "type": "Point", "coordinates": [ 145.180184, -37.824939 ] } },
{ "type": "Feature", "properties": { "name": "EVUp", "address": "287-291 Whitehorse Road, Melbourne, VIC, 3131", "latitude": -37.817751, "longitude": 145.1696, "score": 1.0240796804000001 }, "geometry": { "type": "Point", "coordinates": [ 145.1696, -37.817751 ] } },